{
"type": "FeatureCollection",
"name": "hotosm_civ_populated_places_points_geojson",
"features": [
{ "type": "Feature", "properties": { "name": "Issifoukro", "place": "Hameau", "osm_id": "3115202182" }, "geometry": { "type": "Point", "coordinates": [ -3.8288489, 7.3353897 ] } },
{ "type": "Feature", "properties": { "name": "Doyakro", "place": "Hameau", "osm_id": "3124087069" }, "geometry": { "type": "Point", "coordinates": [ -3.9192007, 7.2074708 ] } },
{ "type": "Feature", "properties": { "name": "Bonon", "place": "Petite ville", "osm_id": "443318327" }, "geometry": { "type": "Point", "coordinates": [ -6.0442776, 6.92692 ] } },
{ "type": "Feature", "properties": { "name": "Bouaflé", "place": "Ville", "osm_id": "4387322934" }, "geometry": { "type": "Point", "coordinates": [ -5.7458332, 6.980181 ] } },
{ "type": "Feature", "properties": { "name": "Séguéla", "place": "Petite ville", "osm_id": "2725995822" }, "geometry": { "type": "Point", "coordinates": [ -6.6702351, 7.9614107 ] } },
{ "type": "Feature", "properties": { "name": "Bouna", "place": "Petite ville", "osm_id": "593916769" }, "geometry": { "type": "Point", "coordinates": [ -2.9989845, 9.2687219 ] } },
{ "type": "Feature", "properties": { "name": "Diafla", "place": "Petite ville", "osm_id": "3112520640" }, "geometry": { "type": "Point", "coordinates": [ -6.866976, 7.4212885 ] } },
{ "type": "Feature", "properties": { "name": "Hiré", "place": "Petite ville", "osm_id": "443392111" }, "geometry": { "type": "Point", "coordinates": [ -5.2960098, 6.1863684 ] } },
{ "type": "Feature", "properties": { "name": "Ferkéssédougou", "place": "Ville", "osm_id": "1828765103" }, "geometry": { "type": "Point", "coordinates": [ -5.1975952, 9.5939778 ] } },
{ "type": "Feature", "properties": { "name": "Odienné", "place": "Petite ville", "osm_id": "319225802" }, "geometry": { "type": "Point", "coordinates": [ -7.561942, 9.504431 ] } },
{ "type": "Feature", "properties": { "name": "Minoré", "place": "Petite ville", "osm_id": "443331228" }, "geometry": { "type": "Point", "coordinates": [ -6.7880533, 7.4866832 ] } },
{ "type": "Feature", "properties": { "name": "Issia", "place": "Ville", "osm_id": "1599890269" }, "geometry": { "type": "Point", "coordinates": [ -6.5887859, 6.4877871 ] } },
{ "type": "Feature", "properties": { "name": "Tiékrodougou", "place": "village", "osm_id": "9482335458" }, "geometry": { "type": "Point", "coordinates": [ -5.4373356, 6.7280161 ] } },
{ "type": "Feature", "properties": { "name": "Vavoua", "place": "Ville", "osm_id": "443329790" }, "geometry": { "type": "Point", "coordinates": [ -6.4796624, 7.3793487 ] } },
{ "type": "Feature", "properties": { "name": "Sinfra", "place": "Ville", "osm_id": "2726018272" }, "geometry": { "type": "Point", "coordinates": [ -5.9089494, 6.6167488 ] } },
{ "type": "Feature", "properties": { "name": "Bondoukou", "place": "Ville", "osm_id": "2967899367" }, "geometry": { "type": "Point", "coordinates": [ -2.7984258, 8.0397992 ] } },
{ "type": "Feature", "properties": { "name": "Boundiali", "place": "Petite ville", "osm_id": "2522426405" }, "geometry": { "type": "Point", "coordinates": [ -6.4820197, 9.5232291 ] } },
{ "type": "Feature", "properties": { "name": "Dania", "place": "Petite ville", "osm_id": "2948573986" }, "geometry": { "type": "Point", "coordinates": [ -6.8416126, 7.1523989 ] } },
{ "type": "Feature", "properties": { "name": "Séitifla", "place": "Petite ville", "osm_id": "443330869" }, "geometry": { "type": "Point", "coordinates": [ -6.7181556, 7.4403748 ] } },
{ "type": "Feature", "properties": { "name": "Man", "place": "Ville", "osm_id": "1597913597" }, "geometry": { "type": "Point", "coordinates": [ -7.5503719, 7.4102584 ] } },
{ "type": "Feature", "properties": { "name": "Soubré", "place": "Ville", "osm_id": "2970242885" }, "geometry": { "type": "Point", "coordinates": [ -6.5933223, 5.7850195 ] } },
{ "type": "Feature", "properties": { "name": "Duékoué", "place": "Ville", "osm_id": "1079388440" }, "geometry": { "type": "Point", "coordinates": [ -7.3432667, 6.7453048 ] } },
{ "type": "Feature", "properties": { "name": "Zouan-Hounien", "place": "Petite ville", "osm_id": "443404014" }, "geometry": { "type": "Point", "coordinates": [ -8.2089154, 6.9198246 ] } },
{ "type": "Feature", "properties": { "name": "Bloléquin", "place": "Petite ville", "osm_id": "1191398314" }, "geometry": { "type": "Point", "coordinates": [ -8.003273, 6.5705513 ] } },
{ "type": "Feature", "properties": { "name": "Agboville", "place": "Ville", "osm_id": "2721007532" }, "geometry": { "type": "Point", "coordinates": [ -4.2131327, 5.9307328 ] } },
{ "type": "Feature", "properties": { "name": "San-Pédro", "place": "Ville", "osm_id": "243642619" }, "geometry": { "type": "Point", "coordinates": [ -6.6463922, 4.7589989 ] } },
{ "type": "Feature", "properties": { "name": "Méagui", "place": "Ville", "osm_id": "1153415065" }, "geometry": { "type": "Point", "coordinates": [ -6.5551664, 5.4039253 ] } },
{ "type": "Feature", "properties": { "name": "Abengourou", "place": "Ville", "osm_id": "2189893258" }, "geometry": { "type": "Point", "coordinates": [ -3.4968431, 6.7269042 ] } },
{ "type": "Feature", "properties": { "name": "Grand-Bassam", "place": "Ville", "osm_id": "1593622307" }, "geometry": { "type": "Point", "coordinates": [ -3.743226, 5.212884 ] } },
{ "type": "Feature", "properties": { "name": "Gagnoa", "place": "Ville", "osm_id": "443395221" }, "geometry": { "type": "Point", "coordinates": [ -5.9510987, 6.1334787 ] } },
{ "type": "Feature", "properties": { "name": "Oumé", "place": "Ville", "osm_id": "443393778" }, "geometry": { "type": "Point", "coordinates": [ -5.4175714, 6.3823941 ] } },
{ "type": "Feature", "properties": { "name": "Agbao", "place": "village", "osm_id": "443309139" }, "geometry": { "type": "Point", "coordinates": [ -5.7780733, 7.7455302 ] } },
{ "type": "Feature", "properties": { "name": "Litobli", "place": "village", "osm_id": "5542896199" }, "geometry": { "type": "Point", "coordinates": [ -7.0091384, 6.8792112 ] } },
{ "type": "Feature", "properties": { "name": "Bouaké", "place": "Ville", "osm_id": "27565008" }, "geometry": { "type": "Point", "coordinates": [ -5.0283552, 7.6890212 ] } },
{ "type": "Feature", "properties": { "name": "Daloa", "place": "Ville", "osm_id": "1597912529" }, "geometry": { "type": "Point", "coordinates": [ -6.4529859, 6.8869233 ] } },
{ "type": "Feature", "properties": { "name": "Guiglo", "place": "Ville", "osm_id": "2726670194" }, "geometry": { "type": "Point", "coordinates": [ -7.4959686, 6.5491401 ] } },
{ "type": "Feature", "properties": { "name": "Dabou", "place": "Ville", "osm_id": "1605486862" }, "geometry": { "type": "Point", "coordinates": [ -4.3722982, 5.3239991 ] } },
{ "type": "Feature", "properties": { "name": "Buyo", "place": "Petite ville", "osm_id": "9517111609" }, "geometry": { "type": "Point", "coordinates": [ -7.0057256, 6.2507192 ] } },
{ "type": "Feature", "properties": { "name": "Bonoua", "place": "Petite ville", "osm_id": "843510776" }, "geometry": { "type": "Point", "coordinates": [ -3.5966802, 5.2736582 ] } },
{ "type": "Feature", "properties": { "name": "Lakota", "place": "Ville", "osm_id": "443387111" }, "geometry": { "type": "Point", "coordinates": [ -5.6827839, 5.8511202 ] } },
{ "type": "Feature", "properties": { "name": "Attoutou B", "place": "village", "osm_id": "2789987667" }, "geometry": { "type": "Point", "coordinates": [ -4.5722006, 5.2211909 ] } },
{ "type": "Feature", "properties": { "name": "Kpata Abidou", "place": "village", "osm_id": "12538694296" }, "geometry": { "type": "Point", "coordinates": [ -5.8544321, 5.1302401 ] } },
{ "type": "Feature", "properties": { "name": "Guégouin", "place": "Hameau", "osm_id": "3157270258" }, "geometry": { "type": "Point", "coordinates": [ -7.6950816, 7.5663307 ] } },
{ "type": "Feature", "properties": { "name": "Bonta", "place": "Hameau", "osm_id": "12209334915" }, "geometry": { "type": "Point", "coordinates": [ -7.6570384, 7.5221741 ] } },
{ "type": "Feature", "properties": { "name": "Balibon 1", "place": "Hameau", "osm_id": "10548912754" }, "geometry": { "type": "Point", "coordinates": [ -5.61455, 5.1286212 ] } },
{ "type": "Feature", "properties": { "name": "Balibon 2", "place": "Hameau", "osm_id": "10548935910" }, "geometry": { "type": "Point", "coordinates": [ -5.6238344, 5.128404 ] } },
{ "type": "Feature", "properties": { "name": "Bingerville", "place": "Ville", "osm_id": "1601215067" }, "geometry": { "type": "Point", "coordinates": [ -3.8885591, 5.3577727 ] } },
{ "type": "Feature", "properties": { "name": "Tiéménin", "place": "Hameau", "osm_id": "3143812557" }, "geometry": { "type": "Point", "coordinates": [ -4.4794636, 9.2883079 ] } },
{ "type": "Feature", "properties": { "name": "Brobo", "place": "village", "osm_id": "2775857676" }, "geometry": { "type": "Point", "coordinates": [ -4.8254775, 7.6408009 ] } },
{ "type": "Feature", "properties": { "name": "Anuanua", "place": "Hameau", "osm_id": "2970178727" }, "geometry": { "type": "Point", "coordinates": [ -3.5540457, 6.7253925 ] } },
{ "type": "Feature", "properties": { "name": "Niambrun", "place": "village", "osm_id": "2968668915" }, "geometry": { "type": "Point", "coordinates": [ -5.5690631, 7.6206133 ] } },
{ "type": "Feature", "properties": { "name": "Konsou", "place": "village", "osm_id": "5150198771" }, "geometry": { "type": "Point", "coordinates": [ -5.6129889, 7.6454087 ] } },
{ "type": "Feature", "properties": { "name": "komambo", "place": "Hameau", "osm_id": "4422069938" }, "geometry": { "type": "Point", "coordinates": [ -5.0613319, 7.5227545 ] } },
{ "type": "Feature", "properties": { "name": "Gnago 1", "place": "village", "osm_id": "5158852635" }, "geometry": { "type": "Point", "coordinates": [ -5.7929814, 5.2435874 ] } },
{ "type": "Feature", "properties": { "name": "Kpérédi", "place": "village", "osm_id": "443389217" }, "geometry": { "type": "Point", "coordinates": [ -5.4980286, 5.9149322 ] } },
{ "type": "Feature", "properties": { "name": "Tanou Sakassou", "place": "village", "osm_id": "2989371500" }, "geometry": { "type": "Point", "coordinates": [ -4.9319519, 7.6783578 ] } },
{ "type": "Feature", "properties": { "name": "Kouadio Alakro", "place": "Hameau", "osm_id": "4422056669" }, "geometry": { "type": "Point", "coordinates": [ -5.0638417, 7.5160474 ] } },
{ "type": "Feature", "properties": { "name": "Dobré carrefour", "place": "village", "osm_id": "12541016654" }, "geometry": { "type": "Point", "coordinates": [ -5.8458226, 5.2305504 ] } },
{ "type": "Feature", "properties": { "name": "Sanogola", "place": "Hameau", "osm_id": "12541020319" }, "geometry": { "type": "Point", "coordinates": [ -6.0805103, 5.1831963 ] } },
{ "type": "Feature", "properties": { "name": "Lotanzia", "place": "Hameau", "osm_id": "3014804057" }, "geometry": { "type": "Point", "coordinates": [ -5.6039823, 6.9837845 ] } },
{ "type": "Feature", "properties": { "name": "Angouassi", "place": "Hameau", "osm_id": "3256860505" }, "geometry": { "type": "Point", "coordinates": [ -5.4056496, 7.0043065 ] } },
{ "type": "Feature", "properties": { "name": "Govitan", "place": "Hameau", "osm_id": "6162071230" }, "geometry": { "type": "Point", "coordinates": [ -3.7238073, 9.866241 ] } },
{ "type": "Feature", "properties": { "name": "Nougoua", "place": "village", "osm_id": "3472277806" }, "geometry": { "type": "Point", "coordinates": [ -2.7777125, 5.341392 ] } },
{ "type": "Feature", "properties": { "name": "Klodio", "place": "Hameau", "osm_id": "9977534943" }, "geometry": { "type": "Point", "coordinates": [ -7.4935265, 4.7307518 ] } },
{ "type": "Feature", "properties": { "name": "Toulépleu", "place": "Petite ville", "osm_id": "2735919293" }, "geometry": { "type": "Point", "coordinates": [ -8.4150175, 6.580899 ] } },
{ "type": "Feature", "properties": { "name": "Bangolo", "place": "Petite ville", "osm_id": "319225783" }, "geometry": { "type": "Point", "coordinates": [ -7.4867606, 7.0119038 ] } },
{ "type": "Feature", "properties": { "name": "M’Brago 1", "place": "village", "osm_id": "2983246155" }, "geometry": { "type": "Point", "coordinates": [ -4.219351, 5.533377 ] } },
{ "type": "Feature", "properties": { "name": "Groh", "place": "village", "osm_id": "3027580268" }, "geometry": { "type": "Point", "coordinates": [ -5.2262682, 7.7857733 ] } },
{ "type": "Feature", "properties": { "name": "Gouiné", "place": "village", "osm_id": "2949727548" }, "geometry": { "type": "Point", "coordinates": [ -7.4169524, 7.7167078 ] } },
{ "type": "Feature", "properties": { "name": "Rubino", "place": "Petite ville", "osm_id": "1226027857" }, "geometry": { "type": "Point", "coordinates": [ -4.305175, 6.071702 ] } },
{ "type": "Feature", "properties": { "name": "M’Batto", "place": "Petite ville", "osm_id": "2747035158" }, "geometry": { "type": "Point", "coordinates": [ -4.3585668, 6.4695017 ] } },
{ "type": "Feature", "properties": { "name": "Kelindjan", "place": "village", "osm_id": "5391516928" }, "geometry": { "type": "Point", "coordinates": [ -7.5732229, 9.9260031 ] } },
{ "type": "Feature", "properties": { "name": "Léki Kouadiokro", "place": "village", "osm_id": "3124087070" }, "geometry": { "type": "Point", "coordinates": [ -4.1382341, 7.1689263 ] } },
{ "type": "Feature", "properties": { "name": "Ania-Assikasso", "place": "village", "osm_id": "3124087063" }, "geometry": { "type": "Point", "coordinates": [ -4.065712, 7.109589 ] } },
{ "type": "Feature", "properties": { "name": "Lasébadougou", "place": "Hameau", "osm_id": "3094838392" }, "geometry": { "type": "Point", "coordinates": [ -7.9596351, 8.4385597 ] } },
{ "type": "Feature", "properties": { "name": "Sokokro", "place": "village", "osm_id": "3181746405" }, "geometry": { "type": "Point", "coordinates": [ -4.5892923, 7.0669078 ] } },
{ "type": "Feature", "properties": { "name": "Zéipleu", "place": "village", "osm_id": "3046060883" }, "geometry": { "type": "Point", "coordinates": [ -7.9703059, 6.8609425 ] } },
{ "type": "Feature", "properties": { "name": "Alidougou", "place": "village", "osm_id": "5825984968" }, "geometry": { "type": "Point", "coordinates": [ -4.2928755, 9.669382 ] } },
{ "type": "Feature", "properties": { "name": "Souké", "place": "Hameau", "osm_id": "2988151188" }, "geometry": { "type": "Point", "coordinates": [ -7.4221332, 4.3801891 ] } },
{ "type": "Feature", "properties": { "name": "Petit Barou", "place": "village", "osm_id": "2994987691" }, "geometry": { "type": "Point", "coordinates": [ -7.2865087, 5.3193804 ] } },
{ "type": "Feature", "properties": { "name": "Koumokro", "place": "village", "osm_id": "3162692341" }, "geometry": { "type": "Point", "coordinates": [ -4.4717667, 7.0183123 ] } },
{ "type": "Feature", "properties": { "name": "Moussadougou", "place": "village", "osm_id": "6167253620" }, "geometry": { "type": "Point", "coordinates": [ -6.3498541, 4.9087456 ] } },
{ "type": "Feature", "properties": { "name": "Dakpadou", "place": "village", "osm_id": "443387762" }, "geometry": { "type": "Point", "coordinates": [ -6.0697316, 5.2383979 ] } },
{ "type": "Feature", "properties": { "name": "Nanwokaka", "place": "village", "osm_id": "1626917067" }, "geometry": { "type": "Point", "coordinates": [ -5.3750266, 8.8949697 ] } },
{ "type": "Feature", "properties": { "name": "Kplessou", "place": "village", "osm_id": "11795985879" }, "geometry": { "type": "Point", "coordinates": [ -5.200943, 6.5421235 ] } },
{ "type": "Feature", "properties": { "name": "Niamkey Konankro", "place": "village", "osm_id": "11795988845" }, "geometry": { "type": "Point", "coordinates": [ -5.2278922, 6.537412 ] } },
{ "type": "Feature", "properties": { "name": "Béoumi", "place": "Petite ville", "osm_id": "359160469" }, "geometry": { "type": "Point", "coordinates": [ -5.5827323, 7.6745381 ] } },
{ "type": "Feature", "properties": { "name": "Dibykro", "place": "village", "osm_id": "9510594704" }, "geometry": { "type": "Point", "coordinates": [ -4.9045602, 5.9119126 ] } },
{ "type": "Feature", "properties": { "name": "Moussagui", "place": "village", "osm_id": "9737919301" }, "geometry": { "type": "Point", "coordinates": [ -6.8423246, 5.8965002 ] } },
{ "type": "Feature", "properties": { "name": "Adamagui", "place": "village", "osm_id": "9737937819" }, "geometry": { "type": "Point", "coordinates": [ -6.8212055, 5.8571252 ] } },
{ "type": "Feature", "properties": { "name": "N'dri yaokro (Directeurkro)", "place": "village", "osm_id": "9734329666" }, "geometry": { "type": "Point", "coordinates": [ -7.0558226, 6.1997697 ] } },
{ "type": "Feature", "properties": { "name": "Wonsealy V2", "place": "village", "osm_id": "9734341122" }, "geometry": { "type": "Point", "coordinates": [ -7.0411126, 6.1740052 ] } },
{ "type": "Feature", "properties": { "name": "ADK", "place": "village", "osm_id": "9734310809" }, "geometry": { "type": "Point", "coordinates": [ -7.096861, 6.1970342 ] } },
{ "type": "Feature", "properties": { "name": "Dje N'Gorankro", "place": "Hameau", "osm_id": "4512916506" }, "geometry": { "type": "Point", "coordinates": [ -5.43082, 6.8905359 ] } },
{ "type": "Feature", "properties": { "name": "Antoinekro", "place": "Hameau", "osm_id": "11768515119" }, "geometry": { "type": "Point", "coordinates": [ -5.4446353, 6.8987626 ] } },
{ "type": "Feature", "properties": { "name": "Toumbokro", "place": "village", "osm_id": "7698727759" }, "geometry": { "type": "Point", "coordinates": [ -5.4935082, 6.9234534 ] } },
{ "type": "Feature", "properties": { "name": "Bonahouin", "place": "village", "osm_id": "2984240436" }, "geometry": { "type": "Point", "coordinates": [ -3.760663, 6.564741 ] } },
{ "type": "Feature", "properties": { "name": "Djinbala", "place": "Hameau", "osm_id": "3294103235" }, "geometry": { "type": "Point", "coordinates": [ -4.9705466, 9.4957884 ] } },
{ "type": "Feature", "properties": { "name": "Assoum I", "place": "village", "osm_id": "6378356327" }, "geometry": { "type": "Point", "coordinates": [ -3.0621708, 9.2296331 ] } },
{ "type": "Feature", "properties": { "name": "Tiobly", "place": "village", "osm_id": "1345739737" }, "geometry": { "type": "Point", "coordinates": [ -8.4994065, 6.5341903 ] } },
{ "type": "Feature", "properties": { "name": "Kangbapleu", "place": "village", "osm_id": "3779639096" }, "geometry": { "type": "Point", "coordinates": [ -7.9835738, 7.187726 ] } },
{ "type": "Feature", "properties": { "name": "Oko", "place": "village", "osm_id": "3136822654" }, "geometry": { "type": "Point", "coordinates": [ -5.2085674, 6.6506103 ] } },
{ "type": "Feature", "properties": { "name": "Blékoua", "place": "village", "osm_id": "1377227491" }, "geometry": { "type": "Point", "coordinates": [ -5.6414043, 6.3220745 ] } },
{ "type": "Feature", "properties": { "name": "Bodo", "place": "Petite ville", "osm_id": "1376345469" }, "geometry": { "type": "Point", "coordinates": [ -4.6845768, 5.9080375 ] } },
{ "type": "Feature", "properties": { "name": "Miadzin", "place": "village", "osm_id": "2984240443" }, "geometry": { "type": "Point", "coordinates": [ -3.906895, 6.044325 ] } },
{ "type": "Feature", "properties": { "name": "Nounoubayé", "place": "village", "osm_id": "1338508087" }, "geometry": { "type": "Point", "coordinates": [ -7.5605378, 6.4590734 ] } },
{ "type": "Feature", "properties": { "name": "Dahoua", "place": "village", "osm_id": "1351849793" }, "geometry": { "type": "Point", "coordinates": [ -7.3476619, 6.6818611 ] } },
{ "type": "Feature", "properties": { "name": "Gongoyo", "place": "Hameau", "osm_id": "4258587208" }, "geometry": { "type": "Point", "coordinates": [ -8.110343, 8.245718 ] } },
{ "type": "Feature", "properties": { "name": "Zomédougou", "place": "Hameau", "osm_id": "3094838408" }, "geometry": { "type": "Point", "coordinates": [ -8.13436, 8.479153 ] } },
{ "type": "Feature", "properties": { "name": "Kouko", "place": "Hameau", "osm_id": "3106156546" }, "geometry": { "type": "Point", "coordinates": [ -8.12523, 8.230449 ] } },
{ "type": "Feature", "properties": { "name": "Wesake", "place": "Hameau", "osm_id": "3056026072" }, "geometry": { "type": "Point", "coordinates": [ -7.566667, 4.683333 ] } },
{ "type": "Feature", "properties": { "name": "Tanwea", "place": "Hameau", "osm_id": "3163984166" }, "geometry": { "type": "Point", "coordinates": [ -8.35487, 6.7968193 ] } },
{ "type": "Feature", "properties": { "name": "Public School", "place": "Habitat isolé", "osm_id": "3163984165" }, "geometry": { "type": "Point", "coordinates": [ -8.3695508, 6.7751926 ] } },
{ "type": "Feature", "properties": { "name": "Younlay", "place": "Hameau", "osm_id": "3163984168" }, "geometry": { "type": "Point", "coordinates": [ -8.357386, 6.7799595 ] } },
{ "type": "Feature", "properties": { "name": "Gongorplay", "place": "Hameau", "osm_id": "3164599663" }, "geometry": { "type": "Point", "coordinates": [ -8.3307, 6.94635 ] } },
{ "type": "Feature", "properties": { "name": "Buutuo", "place": "village", "osm_id": "3049512480" }, "geometry": { "type": "Point", "coordinates": [ -8.3415198, 6.8255347 ] } },
{ "type": "Feature", "properties": { "name": "Zérégbo", "place": "village", "osm_id": "3106156714" }, "geometry": { "type": "Point", "coordinates": [ -7.9077057, 7.0713166 ] } },
{ "type": "Feature", "properties": { "name": "Gan", "place": "village", "osm_id": "3106154609" }, "geometry": { "type": "Point", "coordinates": [ -7.893852, 7.065961 ] } },
{ "type": "Feature", "properties": { "name": "Dépouta", "place": "village", "osm_id": "3046060843" }, "geometry": { "type": "Point", "coordinates": [ -7.962201, 6.910435 ] } },
{ "type": "Feature", "properties": { "name": "Libli", "place": "village", "osm_id": "3046060866" }, "geometry": { "type": "Point", "coordinates": [ -7.995045, 6.822639 ] } },
{ "type": "Feature", "properties": { "name": "Béoué", "place": "village", "osm_id": "1338516472" }, "geometry": { "type": "Point", "coordinates": [ -7.8733523, 6.5498951 ] } },
{ "type": "Feature", "properties": { "name": "Zéaglo", "place": "village", "osm_id": "1351636783" }, "geometry": { "type": "Point", "coordinates": [ -7.8360948, 6.5520676 ] } },
{ "type": "Feature", "properties": { "name": "Glakon", "place": "village", "osm_id": "1338463467" }, "geometry": { "type": "Point", "coordinates": [ -8.2769963, 6.5832446 ] } },
{ "type": "Feature", "properties": { "name": "Tahibli", "place": "village", "osm_id": "1338463468" }, "geometry": { "type": "Point", "coordinates": [ -8.2662363, 6.5921743 ] } },
{ "type": "Feature", "properties": { "name": "Dénan", "place": "village", "osm_id": "1338463461" }, "geometry": { "type": "Point", "coordinates": [ -8.2778282, 6.5373205 ] } },
{ "type": "Feature", "properties": { "name": "Méo", "place": "village", "osm_id": "1338602559" }, "geometry": { "type": "Point", "coordinates": [ -8.2952131, 6.5196661 ] } },
{ "type": "Feature", "properties": { "name": "Boutouo I", "place": "village", "osm_id": "3048991621" }, "geometry": { "type": "Point", "coordinates": [ -8.233843, 6.868955 ] } },
{ "type": "Feature", "properties": { "name": "Douopleu", "place": "village", "osm_id": "3048991627" }, "geometry": { "type": "Point", "coordinates": [ -8.226799, 6.878872 ] } },
{ "type": "Feature", "properties": { "name": "Dohoupleu", "place": "village", "osm_id": "3046060841" }, "geometry": { "type": "Point", "coordinates": [ -8.34718, 6.647478 ] } },
{ "type": "Feature", "properties": { "name": "Fapleu", "place": "village", "osm_id": "3046060844" }, "geometry": { "type": "Point", "coordinates": [ -8.293815, 6.72791 ] } },
{ "type": "Feature", "properties": { "name": "Glareu", "place": "village", "osm_id": "3046060847" }, "geometry": { "type": "Point", "coordinates": [ -8.271926, 6.672797 ] } },
{ "type": "Feature", "properties": { "name": "Séibli", "place": "village", "osm_id": "3006196809" }, "geometry": { "type": "Point", "coordinates": [ -8.4372443, 6.4967145 ] } },
{ "type": "Feature", "properties": { "name": "Mayoubli", "place": "Hameau", "osm_id": "3028615671" }, "geometry": { "type": "Point", "coordinates": [ -8.2812563, 6.5765272 ] } },
{ "type": "Feature", "properties": { "name": "Pantroya", "place": "village", "osm_id": "3006196705" }, "geometry": { "type": "Point", "coordinates": [ -8.3722265, 6.4879509 ] } },
{ "type": "Feature", "properties": { "name": "Kparblee", "place": "Hameau", "osm_id": "3049441937" }, "geometry": { "type": "Point", "coordinates": [ -8.5407112, 6.60568 ] } },
{ "type": "Feature", "properties": { "name": "Klaon", "place": "village", "osm_id": "3046060861" }, "geometry": { "type": "Point", "coordinates": [ -8.530181, 6.5870515 ] } },
{ "type": "Feature", "properties": { "name": "Kambli", "place": "village", "osm_id": "3006196825" }, "geometry": { "type": "Point", "coordinates": [ -8.4124822, 6.5025966 ] } },
{ "type": "Feature", "properties": { "name": "Kouyabli", "place": "Hameau", "osm_id": "3163920907" }, "geometry": { "type": "Point", "coordinates": [ -8.4133633, 6.5280614 ] } },
{ "type": "Feature", "properties": { "name": "Nézobly", "place": "village", "osm_id": "2949028372" }, "geometry": { "type": "Point", "coordinates": [ -8.4726373, 6.5996432 ] } },
{ "type": "Feature", "properties": { "name": "Pantrokin", "place": "village", "osm_id": "1338463465" }, "geometry": { "type": "Point", "coordinates": [ -8.3241406, 6.566439 ] } },
{ "type": "Feature", "properties": { "name": "Saebri", "place": "village", "osm_id": "3046060869" }, "geometry": { "type": "Point", "coordinates": [ -8.338297, 6.576836 ] } },
{ "type": "Feature", "properties": { "name": "Guiamapleu", "place": "village", "osm_id": "3046060853" }, "geometry": { "type": "Point", "coordinates": [ -8.327422, 6.653568 ] } },
{ "type": "Feature", "properties": { "name": "Douéleu", "place": "village", "osm_id": "3046060842" }, "geometry": { "type": "Point", "coordinates": [ -8.3764017, 6.684175 ] } },
{ "type": "Feature", "properties": { "name": "Zélé", "place": "village", "osm_id": "1261068574" }, "geometry": { "type": "Point", "coordinates": [ -7.5855225, 7.3652721 ] } },
{ "type": "Feature", "properties": { "name": "Kenlay #1", "place": "Hameau", "osm_id": "3164768777" }, "geometry": { "type": "Point", "coordinates": [ -8.37751, 7.29208 ] } },
{ "type": "Feature", "properties": { "name": "Dohouba", "place": "village", "osm_id": "3046060840" }, "geometry": { "type": "Point", "coordinates": [ -8.327982, 7.341068 ] } },
{ "type": "Feature", "properties": { "name": "Dongouiné", "place": "village", "osm_id": "3047869053" }, "geometry": { "type": "Point", "coordinates": [ -8.1958499, 7.2926514 ] } },
{ "type": "Feature", "properties": { "name": "Kouitongouiné I", "place": "Hameau", "osm_id": "3156620254" }, "geometry": { "type": "Point", "coordinates": [ -7.6590159, 7.3394974 ] } },
{ "type": "Feature", "properties": { "name": "Yanvanou", "place": "Hameau", "osm_id": "3106156706" }, "geometry": { "type": "Point", "coordinates": [ -8.050438, 8.198385 ] } },
{ "type": "Feature", "properties": { "name": "Tiémaso", "place": "Hameau", "osm_id": "3106156685" }, "geometry": { "type": "Point", "coordinates": [ -8.034537, 8.195976 ] } },
{ "type": "Feature", "properties": { "name": "Bouan Houyé", "place": "village", "osm_id": "3048140186" }, "geometry": { "type": "Point", "coordinates": [ -8.332173, 7.546238 ] } },
{ "type": "Feature", "properties": { "name": "Floleu", "place": "village", "osm_id": "3106154605" }, "geometry": { "type": "Point", "coordinates": [ -8.125536, 6.84397 ] } },
{ "type": "Feature", "properties": { "name": "Nimpleu II", "place": "village", "osm_id": "3106156559" }, "geometry": { "type": "Point", "coordinates": [ -8.1310112, 7.4716493 ] } },
{ "type": "Feature", "properties": { "name": "Koonan", "place": "village", "osm_id": "2961900339" }, "geometry": { "type": "Point", "coordinates": [ -7.970187, 8.3621601 ] } },
{ "type": "Feature", "properties": { "name": "Seydougou", "place": "village", "osm_id": "2966575773" }, "geometry": { "type": "Point", "coordinates": [ -7.975548, 9.511824 ] } },
{ "type": "Feature", "properties": { "name": "Oulaikpabli", "place": "village", "osm_id": "3028615672" }, "geometry": { "type": "Point", "coordinates": [ -8.1046575, 6.5876107 ] } },
{ "type": "Feature", "properties": { "name": "Glanleu", "place": "village", "osm_id": "3106154621" }, "geometry": { "type": "Point", "coordinates": [ -8.105084, 6.936077 ] } },
{ "type": "Feature", "properties": { "name": "Blinleu", "place": "village", "osm_id": "3048248823" }, "geometry": { "type": "Point", "coordinates": [ -8.1076898, 7.0502916 ] } },
{ "type": "Feature", "properties": { "name": "Vétouo", "place": "village", "osm_id": "3106156701" }, "geometry": { "type": "Point", "coordinates": [ -8.116338, 6.962988 ] } },
{ "type": "Feature", "properties": { "name": "Dieya", "place": "village", "osm_id": "3028615664" }, "geometry": { "type": "Point", "coordinates": [ -8.1755762, 6.6219563 ] } },
{ "type": "Feature", "properties": { "name": "Ouyatouo", "place": "village", "osm_id": "3106156562" }, "geometry": { "type": "Point", "coordinates": [ -8.1306821, 6.8956441 ] } },
{ "type": "Feature", "properties": { "name": "Zéalé", "place": "village", "osm_id": "2772993382" }, "geometry": { "type": "Point", "coordinates": [ -8.1605632, 6.9879538 ] } },
{ "type": "Feature", "properties": { "name": "Kpanzégbeupleu", "place": "village", "osm_id": "3048203304" }, "geometry": { "type": "Point", "coordinates": [ -8.1718137, 7.1214788 ] } },
{ "type": "Feature", "properties": { "name": "Seileu", "place": "village", "osm_id": "2949344488" }, "geometry": { "type": "Point", "coordinates": [ -8.173514, 7.09628 ] } },
{ "type": "Feature", "properties": { "name": "Tiévopleu II", "place": "village", "osm_id": "3106156686" }, "geometry": { "type": "Point", "coordinates": [ -8.1330284, 7.0752316 ] } },
{ "type": "Feature", "properties": { "name": "Dempleu", "place": "village", "osm_id": "3048991625" }, "geometry": { "type": "Point", "coordinates": [ -8.17483, 7.2330996 ] } },
{ "type": "Feature", "properties": { "name": "Douè 1", "place": "Hameau", "osm_id": "3518319720" }, "geometry": { "type": "Point", "coordinates": [ -7.6447245, 7.8003284 ] } },
{ "type": "Feature", "properties": { "name": "Ahouakro", "place": "village", "osm_id": "2991005915" }, "geometry": { "type": "Point", "coordinates": [ -4.8926053, 6.1295877 ] } },
{ "type": "Feature", "properties": { "name": "Dohouba", "place": "village", "osm_id": "3046060840" }, "geometry": { "type": "Point", "coordinates": [ -8.3229696, 6.803938 ] } },
{ "type": "Feature", "properties": { "name": "Issonneu", "place": "village", "osm_id": "3050710953" }, "geometry": { "type": "Point", "coordinates": [ -7.8479726, 7.2385738 ] } },
{ "type": "Feature", "properties": { "name": "Mahapleu", "place": "village", "osm_id": "1191178886" }, "geometry": { "type": "Point", "coordinates": [ -7.934588, 7.222829 ] } },
{ "type": "Feature", "properties": { "name": "Dropleu", "place": "village", "osm_id": "3050710974" }, "geometry": { "type": "Point", "coordinates": [ -7.9950149, 7.2413734 ] } },
{ "type": "Feature", "properties": { "name": "Kéïbly", "place": "village", "osm_id": "1338516519" }, "geometry": { "type": "Point", "coordinates": [ -7.7484084, 6.5665098 ] } },
{ "type": "Feature", "properties": { "name": "Kaadé", "place": "village", "osm_id": "1351748190" }, "geometry": { "type": "Point", "coordinates": [ -7.7158072, 6.5708044 ] } },
{ "type": "Feature", "properties": { "name": "Baswa", "place": "Hameau", "osm_id": "3051886683" }, "geometry": { "type": "Point", "coordinates": [ -7.938056, 6.270833 ] } },
{ "type": "Feature", "properties": { "name": "Duwa", "place": "Hameau", "osm_id": "3051810991" }, "geometry": { "type": "Point", "coordinates": [ -8.169444, 6.274722 ] } },
{ "type": "Feature", "properties": { "name": "Diaïbli", "place": "village", "osm_id": "4342452631" }, "geometry": { "type": "Point", "coordinates": [ -8.2376008, 6.5995933 ] } },
{ "type": "Feature", "properties": { "name": "Banneu", "place": "village", "osm_id": "1223663615" }, "geometry": { "type": "Point", "coordinates": [ -8.251017, 7.071856 ] } },
{ "type": "Feature", "properties": { "name": "Kouan-Houlé", "place": "village", "osm_id": "2949348362" }, "geometry": { "type": "Point", "coordinates": [ -8.260929, 7.392788 ] } },
{ "type": "Feature", "properties": { "name": "Bampleu", "place": "village", "osm_id": "1207752346" }, "geometry": { "type": "Point", "coordinates": [ -8.3038441, 7.4023729 ] } },
{ "type": "Feature", "properties": { "name": "Buehplay # 1", "place": "Hameau", "osm_id": "3164587358" }, "geometry": { "type": "Point", "coordinates": [ -8.3285052, 6.8426392 ] } },
{ "type": "Feature", "properties": { "name": "Gborplay", "place": "Hameau", "osm_id": "3050177827" }, "geometry": { "type": "Point", "coordinates": [ -8.30459, 7.06119 ] } },
{ "type": "Feature", "properties": { "name": "Bin-Houyé", "place": "Petite ville", "osm_id": "1077253574" }, "geometry": { "type": "Point", "coordinates": [ -8.3163906, 6.7828738 ] } },
{ "type": "Feature", "properties": { "name": "Grié II", "place": "village", "osm_id": "3175030677" }, "geometry": { "type": "Point", "coordinates": [ -8.3705361, 6.4584078 ] } },
{ "type": "Feature", "properties": { "name": "Doho", "place": "village", "osm_id": "3046060839" }, "geometry": { "type": "Point", "coordinates": [ -8.4015474, 6.6185738 ] } },
{ "type": "Feature", "properties": { "name": "Grié I", "place": "village", "osm_id": "3006196789" }, "geometry": { "type": "Point", "coordinates": [ -8.3579797, 6.4855407 ] } },
{ "type": "Feature", "properties": { "name": "Tiakeupleu", "place": "Hameau", "osm_id": "3157271564" }, "geometry": { "type": "Point", "coordinates": [ -7.6415559, 7.3864264 ] } },
{ "type": "Feature", "properties": { "name": "Tianso", "place": "Hameau", "osm_id": "3524863943" }, "geometry": { "type": "Point", "coordinates": [ -7.6140307, 7.3176618 ] } },
{ "type": "Feature", "properties": { "name": "Zalagbatu", "place": "Hameau", "osm_id": "3050180051" }, "geometry": { "type": "Point", "coordinates": [ -8.366667, 7.25 ] } },
{ "type": "Feature", "properties": { "name": "Loguatuo", "place": "Hameau", "osm_id": "3164768778" }, "geometry": { "type": "Point", "coordinates": [ -8.3669085, 7.2393311 ] } },
{ "type": "Feature", "properties": { "name": "Santa", "place": "village", "osm_id": "2949728193" }, "geometry": { "type": "Point", "coordinates": [ -8.0607591, 8.2700773 ] } },
{ "type": "Feature", "properties": { "name": "Yéalé", "place": "village", "osm_id": "3047656658" }, "geometry": { "type": "Point", "coordinates": [ -8.422162, 7.527857 ] } },
{ "type": "Feature", "properties": { "name": "Gbanleu", "place": "village", "osm_id": "3106154616" }, "geometry": { "type": "Point", "coordinates": [ -8.0548215, 7.6173479 ] } },
{ "type": "Feature", "properties": { "name": "Diempleu", "place": "village", "osm_id": "3106154592" }, "geometry": { "type": "Point", "coordinates": [ -8.0675, 7.682222 ] } },
{ "type": "Feature", "properties": { "name": "Koulalé", "place": "village", "osm_id": "3106156547" }, "geometry": { "type": "Point", "coordinates": [ -8.0672732, 7.9486939 ] } },
{ "type": "Feature", "properties": { "name": "Yafé", "place": "village", "osm_id": "3106156702" }, "geometry": { "type": "Point", "coordinates": [ -7.922169, 8.051458 ] } },
{ "type": "Feature", "properties": { "name": "Tienko", "place": "village", "osm_id": "443230450" }, "geometry": { "type": "Point", "coordinates": [ -7.5712819, 8.22927 ] } },
{ "type": "Feature", "properties": { "name": "Bianko", "place": "village", "osm_id": "11179098068" }, "geometry": { "type": "Point", "coordinates": [ -7.4729072, 8.2162595 ] } },
{ "type": "Feature", "properties": { "name": "Kongorona", "place": "Hameau", "osm_id": "11179063929" }, "geometry": { "type": "Point", "coordinates": [ -7.2646868, 8.2662129 ] } },
{ "type": "Feature", "properties": { "name": "Madialo", "place": "village", "osm_id": "11179091834" }, "geometry": { "type": "Point", "coordinates": [ -7.3608355, 8.2329861 ] } },
{ "type": "Feature", "properties": { "name": "Banzi", "place": "village", "osm_id": "11179091835" }, "geometry": { "type": "Point", "coordinates": [ -7.3256057, 8.2275596 ] } },
{ "type": "Feature", "properties": { "name": "Tienfou", "place": "village", "osm_id": "11179050061" }, "geometry": { "type": "Point", "coordinates": [ -7.3649722, 8.3357823 ] } },
{ "type": "Feature", "properties": { "name": "Fama", "place": "village", "osm_id": "11179103788" }, "geometry": { "type": "Point", "coordinates": [ -7.345545, 8.3246924 ] } },
{ "type": "Feature", "properties": { "name": "Nime Zahirougbeu", "place": "village", "osm_id": "4553128645" }, "geometry": { "type": "Point", "coordinates": [ -6.8839987, 6.7625683 ] } },
{ "type": "Feature", "properties": { "name": "Yakoukaha", "place": "Hameau", "osm_id": "6989988195" }, "geometry": { "type": "Point", "coordinates": [ -5.1838946, 8.1189518 ] } },
{ "type": "Feature", "properties": { "name": "Ebonou", "place": "village", "osm_id": "2922343079" }, "geometry": { "type": "Point", "coordinates": [ -5.346935, 5.123977 ] } },
{ "type": "Feature", "properties": { "name": "Lauzoua", "place": "village", "osm_id": "2929730470" }, "geometry": { "type": "Point", "coordinates": [ -5.310133, 5.203268 ] } },
{ "type": "Feature", "properties": { "name": "Nigui Assoko", "place": "village", "osm_id": "2987682873" }, "geometry": { "type": "Point", "coordinates": [ -4.591106, 5.266925 ] } },
{ "type": "Feature", "properties": { "name": "Kondossou", "place": "village", "osm_id": "2944191206" }, "geometry": { "type": "Point", "coordinates": [ -4.506162, 7.716352 ] } },
{ "type": "Feature", "properties": { "name": "Ahouanou", "place": "village", "osm_id": "2922148666" }, "geometry": { "type": "Point", "coordinates": [ -4.858796, 5.505652 ] } },
{ "type": "Feature", "properties": { "name": "Boklé", "place": "Hameau", "osm_id": "3056026033" }, "geometry": { "type": "Point", "coordinates": [ -7.5594206, 4.7822341 ] } },
{ "type": "Feature", "properties": { "name": "Lofiné", "place": "village", "osm_id": "4291501347" }, "geometry": { "type": "Point", "coordinates": [ -5.6761901, 9.5447616 ] } },
{ "type": "Feature", "properties": { "name": "Allai-Yaokro", "place": "village", "osm_id": "2972422343" }, "geometry": { "type": "Point", "coordinates": [ -5.4955858, 6.9772077 ] } },
{ "type": "Feature", "properties": { "name": "Petit Bouaké", "place": "village", "osm_id": "11848530533" }, "geometry": { "type": "Point", "coordinates": [ -5.291112, 6.8100605 ] } },
{ "type": "Feature", "properties": { "name": "Kouassi N'dawa", "place": "village", "osm_id": "3076921973" }, "geometry": { "type": "Point", "coordinates": [ -2.910865, 8.118477 ] } },
{ "type": "Feature", "properties": { "name": "Wakiala", "place": "village", "osm_id": "3088885320" }, "geometry": { "type": "Point", "coordinates": [ -3.1426383, 8.1098045 ] } },
{ "type": "Feature", "properties": { "name": "Séréoudé", "place": "village", "osm_id": "3076921986" }, "geometry": { "type": "Point", "coordinates": [ -2.9469597, 8.0779586 ] } },
{ "type": "Feature", "properties": { "name": "Gahimi", "place": "Hameau", "osm_id": "3076921964" }, "geometry": { "type": "Point", "coordinates": [ -2.9918184, 8.0912245 ] } },
{ "type": "Feature", "properties": { "name": "Kotoka", "place": "village", "osm_id": "2970754860" }, "geometry": { "type": "Point", "coordinates": [ -2.8693525, 5.545259 ] } },
{ "type": "Feature", "properties": { "name": "N'guiémé", "place": "village", "osm_id": "846884756" }, "geometry": { "type": "Point", "coordinates": [ -3.0503716, 5.1449537 ] } },
{ "type": "Feature", "properties": { "name": "Kolokaha", "place": "village", "osm_id": "816251960" }, "geometry": { "type": "Point", "coordinates": [ -5.1924608, 8.9728978 ] } },
{ "type": "Feature", "properties": { "name": "Logement des agents", "place": "Habitat isolé", "osm_id": "12260434642" }, "geometry": { "type": "Point", "coordinates": [ -4.0867401, 5.3352867 ] } },
{ "type": "Feature", "properties": { "name": "Forokouan", "place": "Hameau", "osm_id": "3219475181" }, "geometry": { "type": "Point", "coordinates": [ -6.0664435, 9.979778 ] } },
{ "type": "Feature", "properties": { "name": "Madinatché", "place": "village", "osm_id": "12547784026" }, "geometry": { "type": "Point", "coordinates": [ -5.9716797, 5.1313309 ] } },
{ "type": "Feature", "properties": { "name": "Azuretti", "place": "village", "osm_id": "11835364743" }, "geometry": { "type": "Point", "coordinates": [ -3.7793754, 5.2034622 ] } },
{ "type": "Feature", "properties": { "name": "Bondoukou Pri", "place": "Hameau", "osm_id": "3158379239" }, "geometry": { "type": "Point", "coordinates": [ -5.2688164, 7.5874149 ] } },
{ "type": "Feature", "properties": { "name": "Andokro", "place": "village", "osm_id": "3158264371" }, "geometry": { "type": "Point", "coordinates": [ -5.3153187, 7.6596122 ] } },
{ "type": "Feature", "properties": { "name": "Agokro", "place": "Hameau", "osm_id": "3158379236" }, "geometry": { "type": "Point", "coordinates": [ -5.3182776, 7.5672034 ] } },
{ "type": "Feature", "properties": { "name": "Mandobo", "place": "Hameau", "osm_id": "3158379224" }, "geometry": { "type": "Point", "coordinates": [ -5.2852643, 7.4864105 ] } },
{ "type": "Feature", "properties": { "name": "Koloko Sakassou", "place": "Hameau", "osm_id": "3424586730" }, "geometry": { "type": "Point", "coordinates": [ -5.3373631, 7.3096611 ] } },
{ "type": "Feature", "properties": { "name": "Niéga", "place": "Hameau", "osm_id": "2994987687" }, "geometry": { "type": "Point", "coordinates": [ -6.2154362, 4.8831056 ] } },
{ "type": "Feature", "properties": { "name": "Laboua", "place": "village", "osm_id": "11821873891" }, "geometry": { "type": "Point", "coordinates": [ -6.7218299, 6.3593507 ] } },
{ "type": "Feature", "properties": { "name": "Gobazra", "place": "village", "osm_id": "443318405" }, "geometry": { "type": "Point", "coordinates": [ -5.9693635, 6.9449865 ] } },
{ "type": "Feature", "properties": { "name": "Benou", "place": "village", "osm_id": "11821924141" }, "geometry": { "type": "Point", "coordinates": [ -5.8342884, 6.917544 ] } },
{ "type": "Feature", "properties": { "name": "Benene 2", "place": "village", "osm_id": "11795972734" }, "geometry": { "type": "Point", "coordinates": [ -4.0258653, 6.9507615 ] } },
{ "type": "Feature", "properties": { "name": "Poundiou", "place": "village", "osm_id": "3687984531" }, "geometry": { "type": "Point", "coordinates": [ -6.3206453, 9.4599554 ] } },
{ "type": "Feature", "properties": { "name": "Gohifla", "place": "village", "osm_id": "443316282" }, "geometry": { "type": "Point", "coordinates": [ -6.0011476, 7.3040089 ] } },
{ "type": "Feature", "properties": { "name": "Bogopinfla", "place": "village", "osm_id": "443316357" }, "geometry": { "type": "Point", "coordinates": [ -5.9970278, 7.2929413 ] } },
{ "type": "Feature", "properties": { "name": "Gouenfla", "place": "village", "osm_id": "3013759680" }, "geometry": { "type": "Point", "coordinates": [ -5.9795041, 7.4135233 ] } },
{ "type": "Feature", "properties": { "name": "Bagozra", "place": "village", "osm_id": "3098745297" }, "geometry": { "type": "Point", "coordinates": [ -6.092308, 7.3763114 ] } },
{ "type": "Feature", "properties": { "name": "Krigambo", "place": "village", "osm_id": "443317600" }, "geometry": { "type": "Point", "coordinates": [ -5.8061403, 7.1343896 ] } },
{ "type": "Feature", "properties": { "name": "Tokorossou", "place": "village", "osm_id": "6957392254" }, "geometry": { "type": "Point", "coordinates": [ -5.681631, 7.063147 ] } },
{ "type": "Feature", "properties": { "name": "Lipoyo", "place": "village", "osm_id": "9612597560" }, "geometry": { "type": "Point", "coordinates": [ -6.0139459, 5.0018162 ] } },
{ "type": "Feature", "properties": { "name": "Nianoufla", "place": "village", "osm_id": "443331501" }, "geometry": { "type": "Point", "coordinates": [ -6.1807049, 7.3474718 ] } },
{ "type": "Feature", "properties": { "name": "Yobouessou", "place": "village", "osm_id": "3116047741" }, "geometry": { "type": "Point", "coordinates": [ -4.044796, 6.927616 ] } },
{ "type": "Feature", "properties": { "name": "Kokumbo", "place": "village", "osm_id": "2946444345" }, "geometry": { "type": "Point", "coordinates": [ -5.2559473, 6.5417134 ] } },
{ "type": "Feature", "properties": { "name": "Akazalilié", "place": "village", "osm_id": "11787103188" }, "geometry": { "type": "Point", "coordinates": [ -5.4581643, 5.9702773 ] } },
{ "type": "Feature", "properties": { "name": "Nafana", "place": "village", "osm_id": "443377851" }, "geometry": { "type": "Point", "coordinates": [ -3.7320934, 7.6047096 ] } },
{ "type": "Feature", "properties": { "name": "Grabo", "place": "village", "osm_id": "2772993358" }, "geometry": { "type": "Point", "coordinates": [ -7.4960474, 4.9238146 ] } },
{ "type": "Feature", "properties": { "name": "Gnato", "place": "village", "osm_id": "10704656900" }, "geometry": { "type": "Point", "coordinates": [ -7.459772, 5.0510109 ] } },
{ "type": "Feature", "properties": { "name": "N'dakro", "place": "village", "osm_id": "12881536305" }, "geometry": { "type": "Point", "coordinates": [ -5.5384926, 7.8650976 ] } },
{ "type": "Feature", "properties": { "name": "Dagadji", "place": "village", "osm_id": "9594344979" }, "geometry": { "type": "Point", "coordinates": [ -6.8110301, 5.1246933 ] } },
{ "type": "Feature", "properties": { "name": "Dahoro", "place": "village", "osm_id": "9594356573" }, "geometry": { "type": "Point", "coordinates": [ -6.8213516, 5.1833166 ] } },
{ "type": "Feature", "properties": { "name": "Djapadji", "place": "village", "osm_id": "10572385679" }, "geometry": { "type": "Point", "coordinates": [ -6.8211772, 5.2892776 ] } },
{ "type": "Feature", "properties": { "name": "Bogoboua", "place": "village", "osm_id": "3006407062" }, "geometry": { "type": "Point", "coordinates": [ -5.6949288, 6.0269395 ] } },
{ "type": "Feature", "properties": { "name": "Digako", "place": "village", "osm_id": "3027580265" }, "geometry": { "type": "Point", "coordinates": [ -5.5755144, 6.0604223 ] } },
{ "type": "Feature", "properties": { "name": "Guiguia", "place": "village", "osm_id": "4755583163" }, "geometry": { "type": "Point", "coordinates": [ -5.9092909, 5.9707765 ] } },
{ "type": "Feature", "properties": { "name": "Zigrigbi 2", "place": "village", "osm_id": "5163009017" }, "geometry": { "type": "Point", "coordinates": [ -5.4038406, 5.6007013 ] } },
{ "type": "Feature", "properties": { "name": "Niazaroko", "place": "village", "osm_id": "5179638128" }, "geometry": { "type": "Point", "coordinates": [ -5.5618329, 5.7864436 ] } },
{ "type": "Feature", "properties": { "name": "Godelilie 2", "place": "Hameau", "osm_id": "5180142839" }, "geometry": { "type": "Point", "coordinates": [ -5.9581318, 5.5850899 ] } },
{ "type": "Feature", "properties": { "name": "Kamaradougou", "place": "Hameau", "osm_id": "5197184876" }, "geometry": { "type": "Point", "coordinates": [ -5.0805801, 5.7779845 ] } },
{ "type": "Feature", "properties": { "name": "Pauly Brousse", "place": "village", "osm_id": "5198697186" }, "geometry": { "type": "Point", "coordinates": [ -6.1946557, 4.9656625 ] } },
{ "type": "Feature", "properties": { "name": "Cochem Dida", "place": "village", "osm_id": "5211378162" }, "geometry": { "type": "Point", "coordinates": [ -5.4065043, 5.5520361 ] } },
{ "type": "Feature", "properties": { "name": "Zokolilie", "place": "village", "osm_id": "5238597717" }, "geometry": { "type": "Point", "coordinates": [ -5.6428255, 5.7671841 ] } },
{ "type": "Feature", "properties": { "name": "Dioligbi", "place": "village", "osm_id": "5378490006" }, "geometry": { "type": "Point", "coordinates": [ -5.2527951, 5.5795852 ] } },
{ "type": "Feature", "properties": { "name": "Toutouko", "place": "village", "osm_id": "5406889142" }, "geometry": { "type": "Point", "coordinates": [ -5.930957, 5.6736232 ] } },
{ "type": "Feature", "properties": { "name": "Adjougouansou", "place": "village", "osm_id": "3158379234" }, "geometry": { "type": "Point", "coordinates": [ -5.2796806, 7.5523407 ] } },
{ "type": "Feature", "properties": { "name": "Bodokro", "place": "village", "osm_id": "2504137191" }, "geometry": { "type": "Point", "coordinates": [ -5.4767409, 7.8690077 ] } },
{ "type": "Feature", "properties": { "name": "Gogobro", "place": "village", "osm_id": "3027580267" }, "geometry": { "type": "Point", "coordinates": [ -5.3219894, 6.1563228 ] } },
{ "type": "Feature", "properties": { "name": "Gbelie", "place": "village", "osm_id": "9326983235" }, "geometry": { "type": "Point", "coordinates": [ -5.7108009, 5.9557982 ] } },
{ "type": "Feature", "properties": { "name": "Akabreboua", "place": "village", "osm_id": "9326999953" }, "geometry": { "type": "Point", "coordinates": [ -5.6797518, 5.8782016 ] } },
{ "type": "Feature", "properties": { "name": "Bognoa", "place": "village", "osm_id": "2969182688" }, "geometry": { "type": "Point", "coordinates": [ -5.8209102, 6.065567 ] } },
{ "type": "Feature", "properties": { "name": "Obodroupa", "place": "village", "osm_id": "2969371147" }, "geometry": { "type": "Point", "coordinates": [ -5.7962609, 6.0435317 ] } },
{ "type": "Feature", "properties": { "name": "Gogoko", "place": "village", "osm_id": "2969406654" }, "geometry": { "type": "Point", "coordinates": [ -5.6937845, 6.0011211 ] } },
{ "type": "Feature", "properties": { "name": "Abohio", "place": "village", "osm_id": "3001168316" }, "geometry": { "type": "Point", "coordinates": [ -5.8057306, 5.9726253 ] } },
{ "type": "Feature", "properties": { "name": "Kobouo", "place": "village", "osm_id": "3001168319" }, "geometry": { "type": "Point", "coordinates": [ -5.9837529, 5.9109005 ] } },
{ "type": "Feature", "properties": { "name": "Kobouo Village", "place": "village", "osm_id": "3001168330" }, "geometry": { "type": "Point", "coordinates": [ -5.9896473, 5.9165509 ] } },
{ "type": "Feature", "properties": { "name": "Dagodou", "place": "Hameau", "osm_id": "5130286178" }, "geometry": { "type": "Point", "coordinates": [ -5.4342349, 5.6214839 ] } },
{ "type": "Feature", "properties": { "name": "Zigrigbi 1", "place": "Hameau", "osm_id": "5130286202" }, "geometry": { "type": "Point", "coordinates": [ -5.4378437, 5.6289623 ] } },
{ "type": "Feature", "properties": { "name": "Doumbaro", "place": "village", "osm_id": "5131868337" }, "geometry": { "type": "Point", "coordinates": [ -5.4195325, 5.7599296 ] } },
{ "type": "Feature", "properties": { "name": "Kpadagnoa", "place": "village", "osm_id": "5180141505" }, "geometry": { "type": "Point", "coordinates": [ -5.9078049, 5.576537 ] } },
{ "type": "Feature", "properties": { "name": "Zakpabery", "place": "village", "osm_id": "5189600167" }, "geometry": { "type": "Point", "coordinates": [ -5.7379487, 5.6087417 ] } },
{ "type": "Feature", "properties": { "name": "Gawadougou", "place": "village", "osm_id": "5196020359" }, "geometry": { "type": "Point", "coordinates": [ -5.2417815, 5.6515368 ] } },
{ "type": "Feature", "properties": { "name": "Sur les Rails", "place": "village", "osm_id": "5196020647" }, "geometry": { "type": "Point", "coordinates": [ -5.2809241, 5.7109924 ] } },
{ "type": "Feature", "properties": { "name": "Gazaville", "place": "village", "osm_id": "5196557303" }, "geometry": { "type": "Point", "coordinates": [ -5.3210272, 5.7601734 ] } },
{ "type": "Feature", "properties": { "name": "Kouadiokro", "place": "village", "osm_id": "10115627073" }, "geometry": { "type": "Point", "coordinates": [ -6.4989714, 4.8889494 ] } },
{ "type": "Feature", "properties": { "name": "Grand Gabo", "place": "village", "osm_id": "10704518345" }, "geometry": { "type": "Point", "coordinates": [ -6.6604758, 4.8436218 ] } },
{ "type": "Feature", "properties": { "name": "Ino Village", "place": "village", "osm_id": "10704531457" }, "geometry": { "type": "Point", "coordinates": [ -6.5728922, 4.8416348 ] } },
{ "type": "Feature", "properties": { "name": "Popoko", "place": "village", "osm_id": "10704541195" }, "geometry": { "type": "Point", "coordinates": [ -6.5182692, 4.8294577 ] } },
{ "type": "Feature", "properties": { "name": "Campement Nando", "place": "village", "osm_id": "10548970809" }, "geometry": { "type": "Point", "coordinates": [ -6.0744243, 5.0206216 ] } },
{ "type": "Feature", "properties": { "name": "Akakro", "place": "village", "osm_id": "3114790008" }, "geometry": { "type": "Point", "coordinates": [ -5.9545765, 5.0940481 ] } },
{ "type": "Feature", "properties": { "name": "Kokolilie", "place": "village", "osm_id": "10721759613" }, "geometry": { "type": "Point", "coordinates": [ -5.785572, 5.5849627 ] } },
{ "type": "Feature", "properties": { "name": "Liboli", "place": "village", "osm_id": "11545785517" }, "geometry": { "type": "Point", "coordinates": [ -5.1886618, 5.2180137 ] } },
{ "type": "Feature", "properties": { "name": "Cosrou", "place": "village", "osm_id": "2987682871" }, "geometry": { "type": "Point", "coordinates": [ -4.658889, 5.319061 ] } },
{ "type": "Feature", "properties": { "name": "Affiénou", "place": "village", "osm_id": "2970754845" }, "geometry": { "type": "Point", "coordinates": [ -2.924785, 5.411185 ] } },
{ "type": "Feature", "properties": { "name": "Affery", "place": "village", "osm_id": "2840783518" }, "geometry": { "type": "Point", "coordinates": [ -3.9523616, 6.3203753 ] } },
{ "type": "Feature", "properties": { "name": "Allangouassou", "place": "village", "osm_id": "3068623058" }, "geometry": { "type": "Point", "coordinates": [ -4.5846773, 7.5097449 ] } },
{ "type": "Feature", "properties": { "name": "Ananguié", "place": "village", "osm_id": "2986885657" }, "geometry": { "type": "Point", "coordinates": [ -3.773334, 6.222987 ] } },
{ "type": "Feature", "properties": { "name": "Assikoa", "place": "village", "osm_id": "2906429342" }, "geometry": { "type": "Point", "coordinates": [ -3.80923, 5.993256 ] } },
{ "type": "Feature", "properties": { "name": "Bandakagni-Tomora", "place": "village", "osm_id": "2963882728" }, "geometry": { "type": "Point", "coordinates": [ -3.3050084, 8.007989 ] } },
{ "type": "Feature", "properties": { "name": "Bazra-Nattis", "place": "village", "osm_id": "2948573984" }, "geometry": { "type": "Point", "coordinates": [ -6.521491, 7.608258 ] } },
{ "type": "Feature", "properties": { "name": "Bléniméouin", "place": "village", "osm_id": "1253704761" }, "geometry": { "type": "Point", "coordinates": [ -7.1783237, 7.1380166 ] } },
{ "type": "Feature", "properties": { "name": "Blotilé", "place": "village", "osm_id": "3199179267" }, "geometry": { "type": "Point", "coordinates": [ -7.692015, 7.049016 ] } },
{ "type": "Feature", "properties": { "name": "Bonguéra", "place": "village", "osm_id": "2944573636" }, "geometry": { "type": "Point", "coordinates": [ -4.243349, 7.666626 ] } },
{ "type": "Feature", "properties": { "name": "Bouandougou", "place": "village", "osm_id": "2774026221" }, "geometry": { "type": "Point", "coordinates": [ -5.6681595, 8.2176026 ] } },
{ "type": "Feature", "properties": { "name": "Chiépo", "place": "village", "osm_id": "2929730466" }, "geometry": { "type": "Point", "coordinates": [ -5.062514, 5.695194 ] } },
{ "type": "Feature", "properties": { "name": "Bériaboukro", "place": "village", "osm_id": "3076847349" }, "geometry": { "type": "Point", "coordinates": [ -5.304382, 6.383761 ] } },
{ "type": "Feature", "properties": { "name": "Dahiépa-Kéhi", "place": "village", "osm_id": "2931983313" }, "geometry": { "type": "Point", "coordinates": [ -5.846277, 6.212558 ] } },
{ "type": "Feature", "properties": { "name": "Damé", "place": "village", "osm_id": "2054087572" }, "geometry": { "type": "Point", "coordinates": [ -3.1462227, 7.0660453 ] } },
{ "type": "Feature", "properties": { "name": "Daleu", "place": "village", "osm_id": "2949348360" }, "geometry": { "type": "Point", "coordinates": [ -8.106025, 7.510849 ] } },
{ "type": "Feature", "properties": { "name": "Danguira", "place": "village", "osm_id": "1376356460" }, "geometry": { "type": "Point", "coordinates": [ -3.7666986, 5.6689259 ] } },
{ "type": "Feature", "properties": { "name": "Dialakoro", "place": "village", "osm_id": "5149670799" }, "geometry": { "type": "Point", "coordinates": [ -5.8438717, 8.1930966 ] } },
{ "type": "Feature", "properties": { "name": "Dualla", "place": "village", "osm_id": "2963035388" }, "geometry": { "type": "Point", "coordinates": [ -6.540991, 8.123983 ] } },
{ "type": "Feature", "properties": { "name": "Babokon Appolo", "place": "Hameau", "osm_id": "9327699198" }, "geometry": { "type": "Point", "coordinates": [ -5.299452, 5.5186118 ] } },
{ "type": "Feature", "properties": { "name": "Madouville", "place": "village", "osm_id": "9327699202" }, "geometry": { "type": "Point", "coordinates": [ -5.276536, 5.6905818 ] } },
{ "type": "Feature", "properties": { "name": "Babokon Village", "place": "village", "osm_id": "9327701567" }, "geometry": { "type": "Point", "coordinates": [ -5.3052773, 5.5245343 ] } },
{ "type": "Feature", "properties": { "name": "Kadropka 2", "place": "village", "osm_id": "9685392145" }, "geometry": { "type": "Point", "coordinates": [ -6.0007453, 5.0406088 ] } },
{ "type": "Feature", "properties": { "name": "Tateville", "place": "village", "osm_id": "10555502191" }, "geometry": { "type": "Point", "coordinates": [ -6.3089251, 5.0795644 ] } },
{ "type": "Feature", "properties": { "name": "Gbangbégouiné-Yati", "place": "village", "osm_id": "2949362659" }, "geometry": { "type": "Point", "coordinates": [ -7.674492, 7.330871 ] } },
{ "type": "Feature", "properties": { "name": "Tiagba", "place": "village", "osm_id": "2987682944" }, "geometry": { "type": "Point", "coordinates": [ -4.7230991, 5.2606422 ] } },
{ "type": "Feature", "properties": { "name": "Aby", "place": "village", "osm_id": "2977900995" }, "geometry": { "type": "Point", "coordinates": [ -3.16916, 5.305022 ] } },
{ "type": "Feature", "properties": { "name": "Ahigbé Koffikro", "place": "village", "osm_id": "2970754846" }, "geometry": { "type": "Point", "coordinates": [ -3.380233, 5.40755 ] } },
{ "type": "Feature", "properties": { "name": "Akoboissué", "place": "village", "osm_id": "2863973463" }, "geometry": { "type": "Point", "coordinates": [ -3.232404, 6.96348 ] } },
{ "type": "Feature", "properties": { "name": "Ananguié", "place": "village", "osm_id": "2986885657" }, "geometry": { "type": "Point", "coordinates": [ -4.4711723, 6.0779009 ] } },
{ "type": "Feature", "properties": { "name": "Bacon", "place": "village", "osm_id": "2984240433" }, "geometry": { "type": "Point", "coordinates": [ -3.910174, 6.356025 ] } },
{ "type": "Feature", "properties": { "name": "Baléko", "place": "village", "osm_id": "1306595737" }, "geometry": { "type": "Point", "coordinates": [ -6.0293784, 5.4308473 ] } },
{ "type": "Feature", "properties": { "name": "Basawa", "place": "village", "osm_id": "2963335154" }, "geometry": { "type": "Point", "coordinates": [ -4.103288, 8.051544 ] } },
{ "type": "Feature", "properties": { "name": "Bobi", "place": "village", "osm_id": "2963035385" }, "geometry": { "type": "Point", "coordinates": [ -6.550059, 8.161443 ] } },
{ "type": "Feature", "properties": { "name": "Bonikro", "place": "village", "osm_id": "2968243978" }, "geometry": { "type": "Point", "coordinates": [ -5.22592, 6.386756 ] } },
{ "type": "Feature", "properties": { "name": "Bouboury", "place": "village", "osm_id": "2987667079" }, "geometry": { "type": "Point", "coordinates": [ -4.459605, 5.338713 ] } },
{ "type": "Feature", "properties": { "name": "Bozi", "place": "village", "osm_id": "4513357859" }, "geometry": { "type": "Point", "coordinates": [ -5.5372631, 6.9146795 ] } },
{ "type": "Feature", "properties": { "name": "Bécouéfin", "place": "village", "osm_id": "2906429343" }, "geometry": { "type": "Point", "coordinates": [ -3.84625, 6.480855 ] } },
{ "type": "Feature", "properties": { "name": "Bégbessou", "place": "village", "osm_id": "2948426569" }, "geometry": { "type": "Point", "coordinates": [ -5.597375, 7.066973 ] } },
{ "type": "Feature", "properties": { "name": "Béoué-Zibiao", "place": "Hameau", "osm_id": "1238685386" }, "geometry": { "type": "Point", "coordinates": [ -7.3865657, 7.1149344 ] } },
{ "type": "Feature", "properties": { "name": "Diboké", "place": "village", "osm_id": "1338657266" }, "geometry": { "type": "Point", "coordinates": [ -8.1153237, 6.4448759 ] } },
{ "type": "Feature", "properties": { "name": "Dimandougou", "place": "village", "osm_id": "2963882730" }, "geometry": { "type": "Point", "coordinates": [ -3.7728777, 8.0120408 ] } },
{ "type": "Feature", "properties": { "name": "Digbapia", "place": "village", "osm_id": "4546183656" }, "geometry": { "type": "Point", "coordinates": [ -6.6271712, 6.831627 ] } },
{ "type": "Feature", "properties": { "name": "Diéouzon", "place": "village", "osm_id": "2949064267" }, "geometry": { "type": "Point", "coordinates": [ -7.322195, 7.155748 ] } },
{ "type": "Feature", "properties": { "name": "Djamandioké", "place": "village", "osm_id": "2936010640" }, "geometry": { "type": "Point", "coordinates": [ -7.4703822, 4.4295958 ] } },
{ "type": "Feature", "properties": { "name": "Gbagbam", "place": "village", "osm_id": "2933584069" }, "geometry": { "type": "Point", "coordinates": [ -5.5874761, 5.465372 ] } },
{ "type": "Feature", "properties": { "name": "Gbapleu", "place": "village", "osm_id": "1207752423" }, "geometry": { "type": "Point", "coordinates": [ -7.1583802, 6.4793237 ] } },
{ "type": "Feature", "properties": { "name": "Gouméré", "place": "village", "osm_id": "4431612432" }, "geometry": { "type": "Point", "coordinates": [ -2.980126, 7.896296 ] } },
{ "type": "Feature", "properties": { "name": "Guéssabo", "place": "village", "osm_id": "2948573990" }, "geometry": { "type": "Point", "coordinates": [ -6.95487, 6.736676 ] } },
{ "type": "Feature", "properties": { "name": "Guinglo-Tahouaké", "place": "village", "osm_id": "2949064270" }, "geometry": { "type": "Point", "coordinates": [ -7.164899, 7.035109 ] } },
{ "type": "Feature", "properties": { "name": "Guiembé", "place": "village", "osm_id": "2965187029" }, "geometry": { "type": "Point", "coordinates": [ -5.71277, 9.232983 ] } },
{ "type": "Feature", "properties": { "name": "Guézon", "place": "village", "osm_id": "2949123318" }, "geometry": { "type": "Point", "coordinates": [ -7.1166092, 6.7387474 ] } },
{ "type": "Feature", "properties": { "name": "Kpouèbo", "place": "village", "osm_id": "2946444347" }, "geometry": { "type": "Point", "coordinates": [ -4.856185, 6.334405 ] } },
{ "type": "Feature", "properties": { "name": "Kétésso", "place": "village", "osm_id": "2970242882" }, "geometry": { "type": "Point", "coordinates": [ -3.174071, 5.877962 ] } },
{ "type": "Feature", "properties": { "name": "Logoualé", "place": "village", "osm_id": "1079388465" }, "geometry": { "type": "Point", "coordinates": [ -7.5511449, 7.1074292 ] } },
{ "type": "Feature", "properties": { "name": "Maféré", "place": "village", "osm_id": "1386801492" }, "geometry": { "type": "Point", "coordinates": [ -3.0306236, 5.4143632 ] } },
{ "type": "Feature", "properties": { "name": "Mahalé", "place": "village", "osm_id": "2681967441" }, "geometry": { "type": "Point", "coordinates": [ -6.5776328, 10.1303175 ] } },
{ "type": "Feature", "properties": { "name": "Marhandala", "place": "village", "osm_id": "2963035390" }, "geometry": { "type": "Point", "coordinates": [ -5.919475, 8.447221 ] } },
{ "type": "Feature", "properties": { "name": "Morokro", "place": "village", "osm_id": "2921489873" }, "geometry": { "type": "Point", "coordinates": [ -4.703057, 6.077604 ] } },
{ "type": "Feature", "properties": { "name": "Molonou-Blé", "place": "village", "osm_id": "2946492908" }, "geometry": { "type": "Point", "coordinates": [ -4.9847195, 7.4062989 ] } },
{ "type": "Feature", "properties": { "name": "Namahounondougou", "place": "village", "osm_id": "3117449197" }, "geometry": { "type": "Point", "coordinates": [ -4.133293, 8.126912 ] } },
{ "type": "Feature", "properties": { "name": "Oghlwapo", "place": "village", "osm_id": "2921634257" }, "geometry": { "type": "Point", "coordinates": [ -3.7435433, 5.402526 ] } },
{ "type": "Feature", "properties": { "name": "Ondéfidouo", "place": "village", "osm_id": "2964840318" }, "geometry": { "type": "Point", "coordinates": [ -3.0829686, 9.0438471 ] } },
{ "type": "Feature", "properties": { "name": "Raviart", "place": "village", "osm_id": "2968244301" }, "geometry": { "type": "Point", "coordinates": [ -4.8882718, 7.4038657 ] } },
{ "type": "Feature", "properties": { "name": "Roa", "place": "village", "osm_id": "2977919560" }, "geometry": { "type": "Point", "coordinates": [ -3.330477, 5.29763 ] } },
{ "type": "Feature", "properties": { "name": "Sangouiné", "place": "village", "osm_id": "1309357039" }, "geometry": { "type": "Point", "coordinates": [ -7.7789417, 7.2724591 ] } },
{ "type": "Feature", "properties": { "name": "Gan Santa", "place": "village", "osm_id": "3157226915" }, "geometry": { "type": "Point", "coordinates": [ -7.5219835, 7.6918075 ] } },
{ "type": "Feature", "properties": { "name": "Sépikaha", "place": "village", "osm_id": "3432288677" }, "geometry": { "type": "Point", "coordinates": [ -5.0451654, 8.9096716 ] } },
{ "type": "Feature", "properties": { "name": "Tanguélan", "place": "village", "osm_id": "2863265731" }, "geometry": { "type": "Point", "coordinates": [ -3.305516, 7.164994 ] } },
{ "type": "Feature", "properties": { "name": "Taoudi", "place": "village", "osm_id": "2963884573" }, "geometry": { "type": "Point", "coordinates": [ -3.434735, 8.137008 ] } },
{ "type": "Feature", "properties": { "name": "Tioroniaradougou", "place": "village", "osm_id": "2965187262" }, "geometry": { "type": "Point", "coordinates": [ -5.637656, 9.354461 ] } },
{ "type": "Feature", "properties": { "name": "Tiéningboué", "place": "Petite ville", "osm_id": "2735910464" }, "geometry": { "type": "Point", "coordinates": [ -5.7220863, 8.1785845 ] } },
{ "type": "Feature", "properties": { "name": "Toupah", "place": "village", "osm_id": "2922344253" }, "geometry": { "type": "Point", "coordinates": [ -4.5651395, 5.3190129 ] } },
{ "type": "Feature", "properties": { "name": "Yopohué", "place": "village", "osm_id": "2931983931" }, "geometry": { "type": "Point", "coordinates": [ -5.829518, 6.395964 ] } },
{ "type": "Feature", "properties": { "name": "Etuéboué", "place": "village", "osm_id": "2863973468" }, "geometry": { "type": "Point", "coordinates": [ -3.214726, 5.2108493 ] } },
{ "type": "Feature", "properties": { "name": "Eboué", "place": "village", "osm_id": "2970754858" }, "geometry": { "type": "Point", "coordinates": [ -3.125502, 5.344071 ] } },
{ "type": "Feature", "properties": { "name": "Facobli", "place": "village", "osm_id": "1255247574" }, "geometry": { "type": "Point", "coordinates": [ -7.3761531, 7.3886375 ] } },
{ "type": "Feature", "properties": { "name": "Foungbesso", "place": "village", "osm_id": "2789987693" }, "geometry": { "type": "Point", "coordinates": [ -7.6764215, 7.9483324 ] } },
{ "type": "Feature", "properties": { "name": "Férémandougou", "place": "village", "osm_id": "3043053440" }, "geometry": { "type": "Point", "coordinates": [ -7.5719913, 8.9577726 ] } },
{ "type": "Feature", "properties": { "name": "Gbétogo", "place": "village", "osm_id": "3185815030" }, "geometry": { "type": "Point", "coordinates": [ -6.9429132, 8.1265979 ] } },
{ "type": "Feature", "properties": { "name": "Goudouko", "place": "village", "osm_id": "2930084051" }, "geometry": { "type": "Point", "coordinates": [ -5.615811, 5.736654 ] } },
{ "type": "Feature", "properties": { "name": "Kalaha", "place": "village", "osm_id": "3757648743" }, "geometry": { "type": "Point", "coordinates": [ -5.8176726, 9.2992367 ] } },
{ "type": "Feature", "properties": { "name": "Kamoro", "place": "village", "osm_id": "5147765168" }, "geometry": { "type": "Point", "coordinates": [ -5.7273499, 8.3022677 ] } },
{ "type": "Feature", "properties": { "name": "Komborodougou", "place": "village", "osm_id": "2965187032" }, "geometry": { "type": "Point", "coordinates": [ -5.429216, 9.326337 ] } },
{ "type": "Feature", "properties": { "name": "Kouadioblékro", "place": "village", "osm_id": "2944573638" }, "geometry": { "type": "Point", "coordinates": [ -4.317165, 6.934161 ] } },
{ "type": "Feature", "properties": { "name": "Kouassia-Niaguini", "place": "village", "osm_id": "2963397970" }, "geometry": { "type": "Point", "coordinates": [ -3.037492, 7.388893 ] } },
{ "type": "Feature", "properties": { "name": "Koyékro", "place": "village", "osm_id": "2986885695" }, "geometry": { "type": "Point", "coordinates": [ -4.745674, 6.152527 ] } },
{ "type": "Feature", "properties": { "name": "Monoko Zohi", "place": "village", "osm_id": "3326690123" }, "geometry": { "type": "Point", "coordinates": [ -6.8456282, 7.0692667 ] } },
{ "type": "Feature", "properties": { "name": "N'Ganon", "place": "village", "osm_id": "3246253324" }, "geometry": { "type": "Point", "coordinates": [ -5.9909637, 9.6825212 ] } },
{ "type": "Feature", "properties": { "name": "N’Zécrézessou", "place": "village", "osm_id": "2944573641" }, "geometry": { "type": "Point", "coordinates": [ -4.280357, 7.071576 ] } },
{ "type": "Feature", "properties": { "name": "Nassian", "place": "village", "osm_id": "807184038" }, "geometry": { "type": "Point", "coordinates": [ -3.4707332, 8.4530536 ] } },
{ "type": "Feature", "properties": { "name": "Nambingué", "place": "village", "osm_id": "3215191265" }, "geometry": { "type": "Point", "coordinates": [ -5.3233473, 10.0525004 ] } },
{ "type": "Feature", "properties": { "name": "N’Douffoukankro", "place": "village", "osm_id": "2948426572" }, "geometry": { "type": "Point", "coordinates": [ -5.8217423, 6.8619469 ] } },
{ "type": "Feature", "properties": { "name": "Pacobo", "place": "village", "osm_id": "2921489874" }, "geometry": { "type": "Point", "coordinates": [ -4.937226, 6.167423 ] } },
{ "type": "Feature", "properties": { "name": "Péhé", "place": "village", "osm_id": "1338463464" }, "geometry": { "type": "Point", "coordinates": [ -8.3037854, 6.5627784 ] } },
{ "type": "Feature", "properties": { "name": "Podiagouiné", "place": "village", "osm_id": "2949362660" }, "geometry": { "type": "Point", "coordinates": [ -7.745929, 7.149836 ] } },
{ "type": "Feature", "properties": { "name": "Pélézi", "place": "village", "osm_id": "3112514290" }, "geometry": { "type": "Point", "coordinates": [ -6.815577, 7.2845504 ] } },
{ "type": "Feature", "properties": { "name": "Sémien", "place": "village", "osm_id": "2949123322" }, "geometry": { "type": "Point", "coordinates": [ -7.129547, 7.614189 ] } },
{ "type": "Feature", "properties": { "name": "Tabagne", "place": "village", "osm_id": "2963884572" }, "geometry": { "type": "Point", "coordinates": [ -3.0678311, 7.9907748 ] } },
{ "type": "Feature", "properties": { "name": "Tié-N’Diékro", "place": "Petite ville", "osm_id": "2946493616" }, "geometry": { "type": "Point", "coordinates": [ -4.7651872, 7.4274242 ] } },
{ "type": "Feature", "properties": { "name": "Tinhou", "place": "village", "osm_id": "1338621394" }, "geometry": { "type": "Point", "coordinates": [ -8.1571515, 6.4389047 ] } },
{ "type": "Feature", "properties": { "name": "Tiémélékro", "place": "village", "osm_id": "2946444943" }, "geometry": { "type": "Point", "coordinates": [ -4.6155256, 6.4970737 ] } },
{ "type": "Feature", "properties": { "name": "Tonla", "place": "village", "osm_id": "443394524" }, "geometry": { "type": "Point", "coordinates": [ -5.6429497, 6.3534446 ] } },
{ "type": "Feature", "properties": { "name": "Téguéla", "place": "village", "osm_id": "3125088036" }, "geometry": { "type": "Point", "coordinates": [ -6.6252556, 7.8456401 ] } },
{ "type": "Feature", "properties": { "name": "Zagoué", "place": "village", "osm_id": "3516260109" }, "geometry": { "type": "Point", "coordinates": [ -7.497312, 7.480181 ] } },
{ "type": "Feature", "properties": { "name": "Zatta", "place": "village", "osm_id": "4512917150" }, "geometry": { "type": "Point", "coordinates": [ -5.4035429, 6.8776452 ] } },
{ "type": "Feature", "properties": { "name": "Zébra", "place": "village", "osm_id": "2920319272" }, "geometry": { "type": "Point", "coordinates": [ -6.529482, 6.921257 ] } },
{ "type": "Feature", "properties": { "name": "Boli", "place": "village", "osm_id": "2946492904" }, "geometry": { "type": "Point", "coordinates": [ -4.806659, 7.226483 ] } },
{ "type": "Feature", "properties": { "name": "Youndouo", "place": "village", "osm_id": "2964841872" }, "geometry": { "type": "Point", "coordinates": [ -2.9574519, 8.8254165 ] } },
{ "type": "Feature", "properties": { "name": "Fagnampleu", "place": "village", "osm_id": "2949372564" }, "geometry": { "type": "Point", "coordinates": [ -7.401145, 7.447697 ] } },
{ "type": "Feature", "properties": { "name": "Bounda", "place": "village", "osm_id": "3106154580" }, "geometry": { "type": "Point", "coordinates": [ -4.737028, 7.621989 ] } },
{ "type": "Feature", "properties": { "name": "Tanda", "place": "Petite ville", "osm_id": "843418409" }, "geometry": { "type": "Point", "coordinates": [ -3.1672478, 7.803664 ] } },
{ "type": "Feature", "properties": { "name": "Yaakrom", "place": "village", "osm_id": "3036612275" }, "geometry": { "type": "Point", "coordinates": [ -3.0213932, 7.0893936 ] } },
{ "type": "Feature", "properties": { "name": "Yorodougou", "place": "village", "osm_id": "2949728194" }, "geometry": { "type": "Point", "coordinates": [ -7.880244, 7.783563 ] } },
{ "type": "Feature", "properties": { "name": "Zaguiéta", "place": "village", "osm_id": "2948426980" }, "geometry": { "type": "Point", "coordinates": [ -6.062872, 6.788149 ] } },
{ "type": "Feature", "properties": { "name": "Sanbusi", "place": "Hameau", "osm_id": "11764100612" }, "geometry": { "type": "Point", "coordinates": [ -2.6109105, 8.103591 ] } },
{ "type": "Feature", "properties": { "name": "Zobo", "place": "Hameau", "osm_id": "11764100613" }, "geometry": { "type": "Point", "coordinates": [ -2.5819078, 8.1438147 ] } },
{ "type": "Feature", "properties": { "name": "Kato", "place": "village", "osm_id": "3175882826" }, "geometry": { "type": "Point", "coordinates": [ -6.8305679, 8.4874044 ] } },
{ "type": "Feature", "properties": { "name": "Alépé", "place": "Petite ville", "osm_id": "846762369" }, "geometry": { "type": "Point", "coordinates": [ -3.6638901, 5.4966091 ] } },
{ "type": "Feature", "properties": { "name": "Moko", "place": "village", "osm_id": "3047656441" }, "geometry": { "type": "Point", "coordinates": [ -5.890592, 6.136018 ] } },
{ "type": "Feature", "properties": { "name": "Kwameseikrom", "place": "village", "osm_id": "2199502869" }, "geometry": { "type": "Point", "coordinates": [ -2.904146, 7.6300299 ] } },
{ "type": "Feature", "properties": { "name": "Zezera", "place": "village", "osm_id": "3037797197" }, "geometry": { "type": "Point", "coordinates": [ -2.8620768, 7.7317993 ] } },
{ "type": "Feature", "properties": { "name": "Adiokor No.2", "place": "village", "osm_id": "3037797204" }, "geometry": { "type": "Point", "coordinates": [ -2.855193, 7.7502129 ] } },
{ "type": "Feature", "properties": { "name": "N’Gattakro", "place": "village", "osm_id": "2944573640" }, "geometry": { "type": "Point", "coordinates": [ -3.7558267, 7.0633791 ] } },
{ "type": "Feature", "properties": { "name": "Febi", "place": "Hameau", "osm_id": "2115939425" }, "geometry": { "type": "Point", "coordinates": [ -2.7828678, 7.9000097 ] } },
{ "type": "Feature", "properties": { "name": "Nsonsomea", "place": "village", "osm_id": "2199503419" }, "geometry": { "type": "Point", "coordinates": [ -2.7869259, 7.8544543 ] } },
{ "type": "Feature", "properties": { "name": "Frimpongkrom", "place": "Hameau", "osm_id": "11755865240" }, "geometry": { "type": "Point", "coordinates": [ -3.0511549, 7.0642698 ] } },
{ "type": "Feature", "properties": { "name": "Djahakro", "place": "village", "osm_id": "11753172783" }, "geometry": { "type": "Point", "coordinates": [ -5.2348542, 6.8835764 ] } },
{ "type": "Feature", "properties": { "name": "Danyame", "place": "village", "osm_id": "2117477966" }, "geometry": { "type": "Point", "coordinates": [ -2.9413228, 7.4315078 ] } },
{ "type": "Feature", "properties": { "name": "Nsesereso", "place": "village", "osm_id": "2117478193" }, "geometry": { "type": "Point", "coordinates": [ -2.9354386, 7.4542343 ] } },
{ "type": "Feature", "properties": { "name": "Kangono", "place": "Hameau", "osm_id": "3733373459" }, "geometry": { "type": "Point", "coordinates": [ -3.4093526, 5.458219 ] } },
{ "type": "Feature", "properties": { "name": "Yapégavogo", "place": "Hameau", "osm_id": "3222864582" }, "geometry": { "type": "Point", "coordinates": [ -5.4425193, 9.7811118 ] } },
{ "type": "Feature", "properties": { "name": "Mérékou", "place": "village", "osm_id": "3076899675" }, "geometry": { "type": "Point", "coordinates": [ -3.054611, 7.738628 ] } },
{ "type": "Feature", "properties": { "name": "Fadiadougou Sokoura", "place": "village", "osm_id": "2789987691" }, "geometry": { "type": "Point", "coordinates": [ -6.4823657, 8.6818258 ] } },
{ "type": "Feature", "properties": { "name": "Tiorotiérivogo", "place": "village", "osm_id": "3685512176" }, "geometry": { "type": "Point", "coordinates": [ -5.616667, 9.6 ] } },
{ "type": "Feature", "properties": { "name": "Tiébila", "place": "Hameau", "osm_id": "3685512177" }, "geometry": { "type": "Point", "coordinates": [ -5.82722, 9.744248 ] } },
{ "type": "Feature", "properties": { "name": "Tiasso", "place": "village", "osm_id": "2833133285" }, "geometry": { "type": "Point", "coordinates": [ -6.2537922, 9.7110928 ] } },
{ "type": "Feature", "properties": { "name": "Lafing", "place": "village", "osm_id": "3246391669" }, "geometry": { "type": "Point", "coordinates": [ -6.1420899, 9.6884541 ] } },
{ "type": "Feature", "properties": { "name": "Martinkro", "place": "village", "osm_id": "10202433353" }, "geometry": { "type": "Point", "coordinates": [ -3.670055, 7.0881234 ] } },
{ "type": "Feature", "properties": { "name": "Amoikonkro", "place": "village", "osm_id": "2967903783" }, "geometry": { "type": "Point", "coordinates": [ -3.628336, 7.115573 ] } },
{ "type": "Feature", "properties": { "name": "Chantier", "place": "Hameau", "osm_id": "10202373581" }, "geometry": { "type": "Point", "coordinates": [ -3.6613455, 7.0541899 ] } },
{ "type": "Feature", "properties": { "name": "N'tekerefe", "place": "village", "osm_id": "10202385382" }, "geometry": { "type": "Point", "coordinates": [ -3.5847499, 7.071597 ] } },
{ "type": "Feature", "properties": { "name": "N'dolikro", "place": "Hameau", "osm_id": "10202453546" }, "geometry": { "type": "Point", "coordinates": [ -3.8006919, 7.0552998 ] } },
{ "type": "Feature", "properties": { "name": "Prikro ouelle", "place": "village", "osm_id": "10200630190" }, "geometry": { "type": "Point", "coordinates": [ -4.0970622, 7.3023645 ] } },
{ "type": "Feature", "properties": { "name": "Ouazomon", "place": "village", "osm_id": "3676992397" }, "geometry": { "type": "Point", "coordinates": [ -6.5016342, 9.4078345 ] } },
{ "type": "Feature", "properties": { "name": "Ziédougou", "place": "village", "osm_id": "3676992418" }, "geometry": { "type": "Point", "coordinates": [ -6.4915649, 9.2537588 ] } },
{ "type": "Feature", "properties": { "name": "Sisseplé", "place": "village", "osm_id": "3676992460" }, "geometry": { "type": "Point", "coordinates": [ -6.4507728, 9.2281726 ] } },
{ "type": "Feature", "properties": { "name": "Gbonniellé", "place": "village", "osm_id": "3676992517" }, "geometry": { "type": "Point", "coordinates": [ -6.5226104, 9.1234653 ] } },
{ "type": "Feature", "properties": { "name": "Ntoreso", "place": "village", "osm_id": "11741341016" }, "geometry": { "type": "Point", "coordinates": [ -2.5853437, 8.7837792 ] } },
{ "type": "Feature", "properties": { "name": "Gbando", "place": "Hameau", "osm_id": "3687984525" }, "geometry": { "type": "Point", "coordinates": [ -6.685262, 9.571703 ] } },
{ "type": "Feature", "properties": { "name": "Fonondara", "place": "village", "osm_id": "3687984024" }, "geometry": { "type": "Point", "coordinates": [ -6.271389, 9.470833 ] } },
{ "type": "Feature", "properties": { "name": "Kaniéné", "place": "Hameau", "osm_id": "3040917726" }, "geometry": { "type": "Point", "coordinates": [ -6.627637, 9.366124 ] } },
{ "type": "Feature", "properties": { "name": "Katiéré", "place": "village", "osm_id": "3687984527" }, "geometry": { "type": "Point", "coordinates": [ -6.289887, 9.44638 ] } },
{ "type": "Feature", "properties": { "name": "Kamara", "place": "village", "osm_id": "2992389913" }, "geometry": { "type": "Point", "coordinates": [ -6.1298184, 9.4448837 ] } },
{ "type": "Feature", "properties": { "name": "Fandasso", "place": "village", "osm_id": "3679545000" }, "geometry": { "type": "Point", "coordinates": [ -6.8803581, 9.4600032 ] } },
{ "type": "Feature", "properties": { "name": "Sananférédougou", "place": "village", "osm_id": "3184578633" }, "geometry": { "type": "Point", "coordinates": [ -7.5324943, 10.0499731 ] } },
{ "type": "Feature", "properties": { "name": "Kodiaga", "place": "village", "osm_id": "3664971187" }, "geometry": { "type": "Point", "coordinates": [ -6.7071548, 9.8247912 ] } },
{ "type": "Feature", "properties": { "name": "Tiolasso", "place": "village", "osm_id": "3664971188" }, "geometry": { "type": "Point", "coordinates": [ -6.8280279, 9.7868817 ] } },
{ "type": "Feature", "properties": { "name": "Kouadiokro", "place": "Hameau", "osm_id": "10115627073" }, "geometry": { "type": "Point", "coordinates": [ -3.319079, 7.277805 ] } },
{ "type": "Feature", "properties": { "name": "Paris Léona", "place": "village", "osm_id": "3000865826" }, "geometry": { "type": "Point", "coordinates": [ -7.5291056, 6.3515146 ] } },
{ "type": "Feature", "properties": { "name": "Madina", "place": "Hameau", "osm_id": "11179013185" }, "geometry": { "type": "Point", "coordinates": [ -3.520634, 5.563786 ] } },
{ "type": "Feature", "properties": { "name": "Ettrokro", "place": "village", "osm_id": "2944573637" }, "geometry": { "type": "Point", "coordinates": [ -3.7597319, 7.258925 ] } },
{ "type": "Feature", "properties": { "name": "Anyama", "place": "Ville", "osm_id": "1225859428" }, "geometry": { "type": "Point", "coordinates": [ -4.0512414, 5.4960537 ] } },
{ "type": "Feature", "properties": { "name": "N'Zuekro", "place": "village", "osm_id": "5876789385" }, "geometry": { "type": "Point", "coordinates": [ -6.7806368, 5.2240389 ] } },
{ "type": "Feature", "properties": { "name": "Fourougbankoro", "place": "village", "osm_id": "5173122889" }, "geometry": { "type": "Point", "coordinates": [ -5.7553001, 8.3243142 ] } },
{ "type": "Feature", "properties": { "name": "Tabakoro Dyoulaso", "place": "Hameau", "osm_id": "5173122904" }, "geometry": { "type": "Point", "coordinates": [ -5.7775619, 8.3357506 ] } },
{ "type": "Feature", "properties": { "name": "Lama Foungbé", "place": "Hameau", "osm_id": "5150066712" }, "geometry": { "type": "Point", "coordinates": [ -5.7675875, 8.0708134 ] } },
{ "type": "Feature", "properties": { "name": "Okoudougou", "place": "village", "osm_id": "5152624516" }, "geometry": { "type": "Point", "coordinates": [ -5.7151396, 8.3268936 ] } },
{ "type": "Feature", "properties": { "name": "Gnipi 2", "place": "village", "osm_id": "7790593587" }, "geometry": { "type": "Point", "coordinates": [ -6.6439139, 5.6685485 ] } },
{ "type": "Feature", "properties": { "name": "Zangaha", "place": "village", "osm_id": "3292786961" }, "geometry": { "type": "Point", "coordinates": [ -6.2391971, 9.2889176 ] } },
{ "type": "Feature", "properties": { "name": "Ouragahio", "place": "Petite ville", "osm_id": "2403164231" }, "geometry": { "type": "Point", "coordinates": [ -5.9312428, 6.3083585 ] } },
{ "type": "Feature", "properties": { "name": "Soungassou", "place": "village", "osm_id": "3138005419" }, "geometry": { "type": "Point", "coordinates": [ -4.617967, 6.632117 ] } },
{ "type": "Feature", "properties": { "name": "Safodougou", "place": "village", "osm_id": "5150066425" }, "geometry": { "type": "Point", "coordinates": [ -5.6355566, 8.1810098 ] } },
{ "type": "Feature", "properties": { "name": "Tyémoko", "place": "Hameau", "osm_id": "5152623699" }, "geometry": { "type": "Point", "coordinates": [ -5.7191058, 8.0495671 ] } },
{ "type": "Feature", "properties": { "name": "Soundougoutou", "place": "village", "osm_id": "5152623820" }, "geometry": { "type": "Point", "coordinates": [ -5.717244, 8.0768691 ] } },
{ "type": "Feature", "properties": { "name": "Silakoro", "place": "village", "osm_id": "3062215873" }, "geometry": { "type": "Point", "coordinates": [ -6.5799619, 8.3592324 ] } },
{ "type": "Feature", "properties": { "name": "Sientientana", "place": "Hameau", "osm_id": "3685512171" }, "geometry": { "type": "Point", "coordinates": [ -6.1975576, 9.7647333 ] } },
{ "type": "Feature", "properties": { "name": "Kanitélégué", "place": "village", "osm_id": "3685512139" }, "geometry": { "type": "Point", "coordinates": [ -6.2297117, 9.6360683 ] } },
{ "type": "Feature", "properties": { "name": "Karpélé", "place": "village", "osm_id": "3173377477" }, "geometry": { "type": "Point", "coordinates": [ -4.7590443, 8.3207961 ] } },
{ "type": "Feature", "properties": { "name": "Loniéné", "place": "village", "osm_id": "3173377482" }, "geometry": { "type": "Point", "coordinates": [ -4.7474298, 8.3117588 ] } },
{ "type": "Feature", "properties": { "name": "Ferme 2", "place": "village", "osm_id": "6990053985" }, "geometry": { "type": "Point", "coordinates": [ -5.3378666, 8.1270157 ] } },
{ "type": "Feature", "properties": { "name": "Pahia", "place": "village", "osm_id": "2929931750" }, "geometry": { "type": "Point", "coordinates": [ -5.1623837, 5.902417 ] } },
{ "type": "Feature", "properties": { "name": "Pinda-Boroko", "place": "village", "osm_id": "2963884433" }, "geometry": { "type": "Point", "coordinates": [ -2.8313424, 7.905982 ] } },
{ "type": "Feature", "properties": { "name": "Gbigbikou", "place": "village", "osm_id": "2970126614" }, "geometry": { "type": "Point", "coordinates": [ -5.958643, 6.3912239 ] } },
{ "type": "Feature", "properties": { "name": "Brihi", "place": "village", "osm_id": "2970126894" }, "geometry": { "type": "Point", "coordinates": [ -5.9192157, 6.4509105 ] } },
{ "type": "Feature", "properties": { "name": "Wate", "place": "village", "osm_id": "4143186551" }, "geometry": { "type": "Point", "coordinates": [ -7.0219956, 4.6341783 ] } },
{ "type": "Feature", "properties": { "name": "Grozo", "place": "village", "osm_id": "9327750178" }, "geometry": { "type": "Point", "coordinates": [ -5.3378381, 5.7874547 ] } },
{ "type": "Feature", "properties": { "name": "Gabia", "place": "village", "osm_id": "3053544512" }, "geometry": { "type": "Point", "coordinates": [ -5.3725478, 6.3085418 ] } },
{ "type": "Feature", "properties": { "name": "Itia", "place": "village", "osm_id": "9468170376" }, "geometry": { "type": "Point", "coordinates": [ -5.822545, 6.3972769 ] } },
{ "type": "Feature", "properties": { "name": "Tiama", "place": "village", "osm_id": "9526502134" }, "geometry": { "type": "Point", "coordinates": [ -5.5422085, 6.3067448 ] } },
{ "type": "Feature", "properties": { "name": "Poro", "place": "village", "osm_id": "9594105596" }, "geometry": { "type": "Point", "coordinates": [ -6.6323046, 4.7814237 ] } },
{ "type": "Feature", "properties": { "name": "Gagny", "place": "village", "osm_id": "9594321182" }, "geometry": { "type": "Point", "coordinates": [ -6.7453585, 5.0493802 ] } },
{ "type": "Feature", "properties": { "name": "Bigne", "place": "village", "osm_id": "9594351526" }, "geometry": { "type": "Point", "coordinates": [ -6.7150058, 5.0151295 ] } },
{ "type": "Feature", "properties": { "name": "Bida", "place": "village", "osm_id": "9594407069" }, "geometry": { "type": "Point", "coordinates": [ -6.4817585, 5.0285442 ] } },
{ "type": "Feature", "properties": { "name": "Dosso", "place": "village", "osm_id": "9612810851" }, "geometry": { "type": "Point", "coordinates": [ -6.8367539, 4.6800044 ] } },
{ "type": "Feature", "properties": { "name": "Gboro", "place": "village", "osm_id": "9612814882" }, "geometry": { "type": "Point", "coordinates": [ -6.9544248, 4.6727201 ] } },
{ "type": "Feature", "properties": { "name": "Djikla", "place": "village", "osm_id": "9612814883" }, "geometry": { "type": "Point", "coordinates": [ -6.9577585, 4.6887657 ] } },
{ "type": "Feature", "properties": { "name": "Singué 2", "place": "village", "osm_id": "9612829361" }, "geometry": { "type": "Point", "coordinates": [ -7.1135044, 4.589314 ] } },
{ "type": "Feature", "properties": { "name": "Djourou", "place": "village", "osm_id": "9612860833" }, "geometry": { "type": "Point", "coordinates": [ -6.9847558, 4.7276033 ] } },
{ "type": "Feature", "properties": { "name": "Krokokro", "place": "village", "osm_id": "3138005320" }, "geometry": { "type": "Point", "coordinates": [ -4.7740384, 6.6449964 ] } },
{ "type": "Feature", "properties": { "name": "Bemavogo", "place": "village", "osm_id": "1626917041" }, "geometry": { "type": "Point", "coordinates": [ -5.4607491, 9.0218164 ] } },
{ "type": "Feature", "properties": { "name": "Tiezankro 3", "place": "village", "osm_id": "443319267" }, "geometry": { "type": "Point", "coordinates": [ -5.7443422, 6.6200448 ] } },
{ "type": "Feature", "properties": { "name": "Tiapoum", "place": "village", "osm_id": "846885185" }, "geometry": { "type": "Point", "coordinates": [ -3.0219227, 5.1385099 ] } },
{ "type": "Feature", "properties": { "name": "Angouakoukro", "place": "village", "osm_id": "2968091112" }, "geometry": { "type": "Point", "coordinates": [ -4.8564789, 6.7211918 ] } },
{ "type": "Feature", "properties": { "name": "Yeou", "place": "village", "osm_id": "5133099621" }, "geometry": { "type": "Point", "coordinates": [ -6.8142051, 4.7243556 ] } },
{ "type": "Feature", "properties": { "name": "Boko", "place": "village", "osm_id": "3039915006" }, "geometry": { "type": "Point", "coordinates": [ -5.4782449, 5.9266723 ] } },
{ "type": "Feature", "properties": { "name": "Siata", "place": "village", "osm_id": "5197184786" }, "geometry": { "type": "Point", "coordinates": [ -5.0421206, 5.7490163 ] } },
{ "type": "Feature", "properties": { "name": "Klana", "place": "village", "osm_id": "9667819603" }, "geometry": { "type": "Point", "coordinates": [ -7.0213871, 4.6169683 ] } },
{ "type": "Feature", "properties": { "name": "Abbe", "place": "village", "osm_id": "10218754252" }, "geometry": { "type": "Point", "coordinates": [ -5.3063753, 7.1955823 ] } },
{ "type": "Feature", "properties": { "name": "Kloplou", "place": "village", "osm_id": "11196611421" }, "geometry": { "type": "Point", "coordinates": [ -7.2733527, 7.3744605 ] } },
{ "type": "Feature", "properties": { "name": "Zouatta 1", "place": "village", "osm_id": "11196617198" }, "geometry": { "type": "Point", "coordinates": [ -7.3521659, 7.4608322 ] } },
{ "type": "Feature", "properties": { "name": "Taobly Z'zikro", "place": "Hameau", "osm_id": "11196621119" }, "geometry": { "type": "Point", "coordinates": [ -7.0534028, 7.5429225 ] } },
{ "type": "Feature", "properties": { "name": "Nandibo 1", "place": "village", "osm_id": "2988080593" }, "geometry": { "type": "Point", "coordinates": [ -4.9244724, 5.2866923 ] } },
{ "type": "Feature", "properties": { "name": "Dandougou", "place": "village", "osm_id": "3158728200" }, "geometry": { "type": "Point", "coordinates": [ -5.9009125, 8.3844139 ] } },
{ "type": "Feature", "properties": { "name": "Bangokro", "place": "village", "osm_id": "2985014356" }, "geometry": { "type": "Point", "coordinates": [ -4.5550944, 6.7563127 ] } },
{ "type": "Feature", "properties": { "name": "Lipara", "place": "village", "osm_id": "3148227134" }, "geometry": { "type": "Point", "coordinates": [ -6.6837827, 8.8455953 ] } },
{ "type": "Feature", "properties": { "name": "Yaffiakaha", "place": "Hameau", "osm_id": "6990034960" }, "geometry": { "type": "Point", "coordinates": [ -5.2163599, 8.0929629 ] } },
{ "type": "Feature", "properties": { "name": "Zoguiné", "place": "village", "osm_id": "3046060882" }, "geometry": { "type": "Point", "coordinates": [ -8.4669269, 6.5428493 ] } },
{ "type": "Feature", "properties": { "name": "Ossibissa", "place": "village", "osm_id": "5096419590" }, "geometry": { "type": "Point", "coordinates": [ -4.0315747, 5.2873319 ] } },
{ "type": "Feature", "properties": { "name": "Appimandoum", "place": "village", "osm_id": "2963882727" }, "geometry": { "type": "Point", "coordinates": [ -2.8727262, 7.8956966 ] } },
{ "type": "Feature", "properties": { "name": "Tatou", "place": "village", "osm_id": "2988642929" }, "geometry": { "type": "Point", "coordinates": [ -7.382479, 4.586707 ] } },
{ "type": "Feature", "properties": { "name": "Gouan", "place": "Hameau", "osm_id": "3000602977" }, "geometry": { "type": "Point", "coordinates": [ -5.334855, 5.779443 ] } },
{ "type": "Feature", "properties": { "name": "Sakua", "place": "village", "osm_id": "3001168634" }, "geometry": { "type": "Point", "coordinates": [ -5.920454, 6.0125639 ] } },
{ "type": "Feature", "properties": { "name": "Soungalovogo", "place": "village", "osm_id": "3699235905" }, "geometry": { "type": "Point", "coordinates": [ -5.1969985, 10.2289054 ] } },
{ "type": "Feature", "properties": { "name": "Baba", "place": "village", "osm_id": "9612792067" }, "geometry": { "type": "Point", "coordinates": [ -6.7310872, 4.7596827 ] } },
{ "type": "Feature", "properties": { "name": "Delydon", "place": "village", "osm_id": "11670603172" }, "geometry": { "type": "Point", "coordinates": [ -4.9442496, 5.2647612 ] } },
{ "type": "Feature", "properties": { "name": "Balibon 3", "place": "village", "osm_id": "11670603173" }, "geometry": { "type": "Point", "coordinates": [ -5.6448079, 5.1227274 ] } },
{ "type": "Feature", "properties": { "name": "Savane", "place": "village", "osm_id": "11670603180" }, "geometry": { "type": "Point", "coordinates": [ -4.5336265, 5.3350043 ] } },
{ "type": "Feature", "properties": { "name": "Adjékro", "place": "Hameau", "osm_id": "2982609200" }, "geometry": { "type": "Point", "coordinates": [ -3.566865, 5.53393 ] } },
{ "type": "Feature", "properties": { "name": "Bakissou", "place": "village", "osm_id": "12848284966" }, "geometry": { "type": "Point", "coordinates": [ -5.5226382, 7.6067636 ] } },
{ "type": "Feature", "properties": { "name": "N'gattakongouekro", "place": "village", "osm_id": "3158439482" }, "geometry": { "type": "Point", "coordinates": [ -5.2907314, 7.9588693 ] } },
{ "type": "Feature", "properties": { "name": "Tiessou linguebo", "place": "village", "osm_id": "3158264362" }, "geometry": { "type": "Point", "coordinates": [ -5.6593456, 7.4980962 ] } },
{ "type": "Feature", "properties": { "name": "Mandanou", "place": "village", "osm_id": "2968243973" }, "geometry": { "type": "Point", "coordinates": [ -5.5399424, 7.5401941 ] } },
{ "type": "Feature", "properties": { "name": "Toumodi sakassou", "place": "village", "osm_id": "2963131771" }, "geometry": { "type": "Point", "coordinates": [ -5.5633378, 7.3971143 ] } },
{ "type": "Feature", "properties": { "name": "Ayaou sokpa", "place": "village", "osm_id": "2963131436" }, "geometry": { "type": "Point", "coordinates": [ -5.6137457, 7.4202987 ] } },
{ "type": "Feature", "properties": { "name": "N'zoupri", "place": "village", "osm_id": "2968668930" }, "geometry": { "type": "Point", "coordinates": [ -5.5754469, 7.5840753 ] } },
{ "type": "Feature", "properties": { "name": "Mane", "place": "village", "osm_id": "12849474330" }, "geometry": { "type": "Point", "coordinates": [ -7.3953071, 4.6799311 ] } },
{ "type": "Feature", "properties": { "name": "Kouassiklokro", "place": "village", "osm_id": "3074861349" }, "geometry": { "type": "Point", "coordinates": [ -5.3849621, 7.381679 ] } },
{ "type": "Feature", "properties": { "name": "Akomiakro", "place": "village", "osm_id": "2504113491" }, "geometry": { "type": "Point", "coordinates": [ -5.5788682, 7.8739433 ] } },
{ "type": "Feature", "properties": { "name": "N'da n'guessankro", "place": "village", "osm_id": "12848317040" }, "geometry": { "type": "Point", "coordinates": [ -5.152331, 7.9087701 ] } },
{ "type": "Feature", "properties": { "name": "Kimoukro", "place": "village", "osm_id": "5344522328" }, "geometry": { "type": "Point", "coordinates": [ -5.2345454, 7.6975533 ] } },
{ "type": "Feature", "properties": { "name": "Moloukro", "place": "village", "osm_id": "3157336028" }, "geometry": { "type": "Point", "coordinates": [ -5.2148044, 7.5276246 ] } },
{ "type": "Feature", "properties": { "name": "Koutoukro", "place": "village", "osm_id": "2982609209" }, "geometry": { "type": "Point", "coordinates": [ -3.5834889, 5.6172389 ] } },
{ "type": "Feature", "properties": { "name": "Bidjinandouo 2", "place": "village", "osm_id": "7731307196" }, "geometry": { "type": "Point", "coordinates": [ -3.3268972, 9.7692807 ] } },
{ "type": "Feature", "properties": { "name": "Namidouo", "place": "village", "osm_id": "7731315531" }, "geometry": { "type": "Point", "coordinates": [ -3.1247548, 9.4462304 ] } },
{ "type": "Feature", "properties": { "name": "Akakro", "place": "village", "osm_id": "3114790008" }, "geometry": { "type": "Point", "coordinates": [ -4.5094319, 5.4778766 ] } },
{ "type": "Feature", "properties": { "name": "Ahouya", "place": "village", "osm_id": "10985371616" }, "geometry": { "type": "Point", "coordinates": [ -4.5085769, 5.4758636 ] } },
{ "type": "Feature", "properties": { "name": "Dragonkro", "place": "Hameau", "osm_id": "12589010473" }, "geometry": { "type": "Point", "coordinates": [ -6.5922775, 5.2383276 ] } },
{ "type": "Feature", "properties": { "name": "Tible", "place": "Hameau", "osm_id": "3049512500" }, "geometry": { "type": "Point", "coordinates": [ -8.3927241, 6.7409261 ] } },
{ "type": "Feature", "properties": { "name": "Singouiné", "place": "village", "osm_id": "3106156677" }, "geometry": { "type": "Point", "coordinates": [ -7.8810605, 7.1588475 ] } },
{ "type": "Feature", "properties": { "name": "Bably", "place": "village", "osm_id": "10571437268" }, "geometry": { "type": "Point", "coordinates": [ -7.8752127, 7.0261984 ] } },
{ "type": "Feature", "properties": { "name": "Ouangolodougou", "place": "Petite ville", "osm_id": "1599958076" }, "geometry": { "type": "Point", "coordinates": [ -5.149917, 9.966279 ] } },
{ "type": "Feature", "properties": { "name": "Ancien Prozi", "place": "Petite ville", "osm_id": "3139825913" }, "geometry": { "type": "Point", "coordinates": [ -6.9685449, 7.6715987 ] } },
{ "type": "Feature", "properties": { "name": "Marikro", "place": "village", "osm_id": "4946305785" }, "geometry": { "type": "Point", "coordinates": [ -6.7389914, 4.7193755 ] } },
{ "type": "Feature", "properties": { "name": "Domangbeu", "place": "village", "osm_id": "2948573987" }, "geometry": { "type": "Point", "coordinates": [ -7.0238361, 6.868962 ] } },
{ "type": "Feature", "properties": { "name": "Bingoro", "place": "village", "osm_id": "5395673241" }, "geometry": { "type": "Point", "coordinates": [ -7.0301689, 7.8306071 ] } },
{ "type": "Feature", "properties": { "name": "Bac-Sémien", "place": "village", "osm_id": "12843167257" }, "geometry": { "type": "Point", "coordinates": [ -7.0675236, 7.7103993 ] } },
{ "type": "Feature", "properties": { "name": "Gbani yakro", "place": "village", "osm_id": "12841717808" }, "geometry": { "type": "Point", "coordinates": [ -5.1864573, 7.5677687 ] } },
{ "type": "Feature", "properties": { "name": "Aghien-Télégraphe", "place": "village", "osm_id": "2983246147" }, "geometry": { "type": "Point", "coordinates": [ -3.848106, 5.415939 ] } },
{ "type": "Feature", "properties": { "name": "Sangdigigbané", "place": "village", "osm_id": "3516260140" }, "geometry": { "type": "Point", "coordinates": [ -7.4986091, 7.8544819 ] } },
{ "type": "Feature", "properties": { "name": "Ali Hamadou Lilaé", "place": "village", "osm_id": "7716102693" }, "geometry": { "type": "Point", "coordinates": [ -6.2026551, 10.6062505 ] } },
{ "type": "Feature", "properties": { "name": "Vaafla", "place": "Petite ville", "osm_id": "443330540" },